[{"sportsplayed":"cricket","City":"Guildford","longitude":144.1656899999,"latitude":-37.1494879995,"suburbtown":"GUILDFORD","gcc":"None","classification":"Ball Sports"},{"sportsplayed":"cricket","City":null,"longitude":144.1489750002,"latitude":-37.0469619988,"suburbtown":"MUCKLEFORD","gcc":"None","classification":"Ball Sports"},{"sportsplayed":"cricket","City":null,"longitude":144.1304019997,"latitude":-37.0990919987,"suburbtown":"MUCKLEFORD SOUTH","gcc":"None","classification":"Ball Sports"},{"sportsplayed":"cricket","City":"Newstead","longitude":144.0639169997,"latitude":-37.1090179991,"suburbtown":"NEWSTEAD","gcc":"None","classification":"Ball Sports"},{"sportsplayed":"cricket","City":"Taradale","longitude":144.3529949997,"latitude":-37.1384999991,"suburbtown":"TARADALE","gcc":"None","classification":"Ball Sports"},{"sportsplayed":"cricket","City":"Castlemaine","longitude":144.2303050001,"latitude":-37.0727089989,"suburbtown":"CASTLEMAINE","gcc":"2rvic","classification":"Ball Sports"},{"sportsplayed":"cricket","City":"Castlemaine","longitude":144.218246,"latitude":-37.0680499987,"suburbtown":"CASTLEMAINE","gcc":"2rvic","classification":"Ball Sports"},{"sportsplayed":"cricket (indoor)","City":"Castlemaine","longitude":144.2150630002,"latitude":-37.0619719991,"suburbtown":"CASTLEMAINE","gcc":"2rvic","classification":"Ball Sports"},{"sportsplayed":"croquet","City":"Castlemaine","longitude":144.2189600005,"latitude":-37.059728999,"suburbtown":"CASTLEMAINE","gcc":"2rvic","classification":"Outdoor and Adventure Sports"},{"sportsplayed":"croquet","City":"Maldon","longitude":144.0675719997,"latitude":-36.996507999,"suburbtown":"MALDON","gcc":"None","classification":"Outdoor and Adventure Sports"},{"sportsplayed":"croquet","City":"Newstead","longitude":144.0609830003,"latitude":-37.1055349991,"suburbtown":"NEWSTEAD","gcc":"None","classification":"Outdoor and Adventure Sports"},{"sportsplayed":"cycling","City":"Castlemaine","longitude":144.2307819999,"latitude":-37.072648999,"suburbtown":"CASTLEMAINE","gcc":"2rvic","classification":"Running and Cycling"},{"sportsplayed":"cycling","City":"Castlemaine","longitude":144.2303050001,"latitude":-37.0727089989,"suburbtown":"CASTLEMAINE","gcc":"2rvic","classification":"Running and Cycling"},{"sportsplayed":"equestrian","City":"Guildford","longitude":144.165756,"latitude":-37.1540039989,"suburbtown":"GUILDFORD","gcc":"None","classification":"Outdoor and Adventure Sports"},{"sportsplayed":"equestrian","City":"Harcourt","longitude":144.2636889998,"latitude":-36.9946629991,"suburbtown":"HARCOURT","gcc":"2rvic","classification":"Outdoor and Adventure Sports"},{"sportsplayed":"equestrian","City":"Maldon","longitude":144.0990400001,"latitude":-36.9854949988,"suburbtown":"MALDON","gcc":"None","classification":"Outdoor and Adventure Sports"},{"sportsplayed":"equestrian","City":"Castlemaine","longitude":144.2055360002,"latitude":-37.0450409987,"suburbtown":"CASTLEMAINE","gcc":"2rvic","classification":"Outdoor and Adventure Sports"},{"sportsplayed":"fitness \/ gymnasium workouts","City":"Castlemaine","longitude":144.2179999999,"latitude":-37.0644999986,"suburbtown":"CASTLEMAINE","gcc":"2rvic","classification":"Strength and Fitness"},{"sportsplayed":"fitness \/ gymnasium workouts","City":"Chewton","longitude":144.2720869998,"latitude":-37.0847029993,"suburbtown":"CHEWTON","gcc":"2rvic","classification":"Strength and Fitness"},{"sportsplayed":"golf","City":null,"longitude":144.1604360005,"latitude":-37.0809179994,"suburbtown":"MUCKLEFORD","gcc":"None","classification":"Outdoor and Adventure Sports"},{"sportsplayed":"golf","City":"Maldon","longitude":144.0632519998,"latitude":-36.9828739987,"suburbtown":"MALDON","gcc":"None","classification":"Outdoor and Adventure Sports"},{"sportsplayed":"golf","City":"Castlemaine","longitude":144.2243130001,"latitude":-37.0550499993,"suburbtown":"CASTLEMAINE","gcc":"2rvic","classification":"Outdoor and Adventure Sports"},{"sportsplayed":"hockey","City":"Castlemaine","longitude":144.2150630002,"latitude":-37.0619719991,"suburbtown":"CASTLEMAINE","gcc":"2rvic","classification":"Water Sports"},{"sportsplayed":"lawn bowls","City":"Campbells Creek","longitude":144.2036509999,"latitude":-37.0915129988,"suburbtown":"CAMPBELLS CREEK","gcc":"2rvic","classification":"Outdoor and Adventure Sports"},{"sportsplayed":"lawn bowls","City":"Castlemaine","longitude":144.2189600005,"latitude":-37.059728999,"suburbtown":"CASTLEMAINE","gcc":"2rvic","classification":"Outdoor and Adventure Sports"},{"sportsplayed":"lawn bowls","City":"Harcourt","longitude":144.2609570001,"latitude":-37.0010289987,"suburbtown":"HARCOURT","gcc":"2rvic","classification":"Outdoor and Adventure Sports"},{"sportsplayed":"lawn bowls","City":"Harcourt","longitude":144.2609570001,"latitude":-37.0010289987,"suburbtown":"HARCOURT","gcc":"2rvic","classification":"Outdoor and Adventure Sports"},{"sportsplayed":"lawn bowls","City":"Maldon","longitude":144.0654899995,"latitude":-36.9902209991,"suburbtown":"MALDON","gcc":"None","classification":"Outdoor and Adventure Sports"},{"sportsplayed":"lawn bowls","City":"Newstead","longitude":144.0609830003,"latitude":-37.1055349991,"suburbtown":"NEWSTEAD","gcc":"None","classification":"Outdoor and Adventure Sports"},{"sportsplayed":"motor cycling","City":null,"longitude":144.098435,"latitude":-37.0275789987,"suburbtown":"MALDON","gcc":"None","classification":"Running and Cycling"},{"sportsplayed":"netball","City":"Maldon","longitude":144.0658760004,"latitude":-36.9963309993,"suburbtown":"MALDON","gcc":"None","classification":"Ball Sports"},{"sportsplayed":"netball","City":"Castlemaine","longitude":144.2122380002,"latitude":-37.0646019987,"suburbtown":"CASTLEMAINE","gcc":"2rvic","classification":"Ball Sports"},{"sportsplayed":"netball","City":"Campbells Creek","longitude":144.2071220001,"latitude":-37.0998699992,"suburbtown":"CAMPBELLS CREEK","gcc":"2rvic","classification":"Ball Sports"},{"sportsplayed":"netball","City":"Harcourt","longitude":144.2570029997,"latitude":-37.0048929988,"suburbtown":"HARCOURT","gcc":"2rvic","classification":"Ball Sports"},{"sportsplayed":"netball","City":"Harcourt","longitude":144.2571370004,"latitude":-37.0041609994,"suburbtown":"HARCOURT","gcc":"2rvic","classification":"Ball Sports"},{"sportsplayed":"netball","City":"Newstead","longitude":144.0639169997,"latitude":-37.1090179991,"suburbtown":"NEWSTEAD","gcc":"None","classification":"Ball Sports"},{"sportsplayed":"netball","City":"Castlemaine","longitude":144.2303050001,"latitude":-37.0727089989,"suburbtown":"CASTLEMAINE","gcc":"2rvic","classification":"Ball Sports"},{"sportsplayed":"netball (indoor)","City":"Castlemaine","longitude":144.2150630002,"latitude":-37.0619719991,"suburbtown":"CASTLEMAINE","gcc":"2rvic","classification":"Ball Sports"},{"sportsplayed":"shooting sports","City":"Castlemaine","longitude":144.2440310004,"latitude":-37.0774519994,"suburbtown":"CASTLEMAINE","gcc":"2rvic","classification":"Outdoor and Adventure Sports"},{"sportsplayed":"snooker \/ billiards \/ pool","City":"Castlemaine","longitude":144.2298399995,"latitude":-37.0717889995,"suburbtown":"CASTLEMAINE","gcc":"2rvic","classification":"Ball Sports"},{"sportsplayed":"soccer","City":"Chewton","longitude":144.2555489995,"latitude":-37.0824239992,"suburbtown":"CHEWTON","gcc":"2rvic","classification":"Ball Sports"},{"sportsplayed":"soccer (indoor soccer \/ futsal)","City":"Castlemaine","longitude":144.2150630002,"latitude":-37.0619719991,"suburbtown":"CASTLEMAINE","gcc":"2rvic","classification":"Ball Sports"},{"sportsplayed":"swimming","City":"Castlemaine","longitude":144.2136339997,"latitude":-37.0541529992,"suburbtown":"CASTLEMAINE","gcc":"2rvic","classification":"Water Sports"},{"sportsplayed":"swimming","City":"Chewton","longitude":144.2541750005,"latitude":-37.0817379995,"suburbtown":"CHEWTON","gcc":"2rvic","classification":"Water Sports"},{"sportsplayed":"swimming","City":"Castlemaine","longitude":144.2179999999,"latitude":-37.0644999986,"suburbtown":"CASTLEMAINE","gcc":"2rvic","classification":"Water Sports"},{"sportsplayed":"swimming","City":"Harcourt","longitude":144.2630219998,"latitude":-36.994473999,"suburbtown":"HARCOURT","gcc":"2rvic","classification":"Water Sports"},{"sportsplayed":"swimming","City":"Maldon","longitude":144.0645140003,"latitude":-36.9945299986,"suburbtown":"MALDON","gcc":"None","classification":"Water Sports"},{"sportsplayed":"swimming","City":"Newstead","longitude":144.0600579995,"latitude":-37.1063909986,"suburbtown":"NEWSTEAD","gcc":"None","classification":"Water Sports"},{"sportsplayed":"table tennis","City":"Castlemaine","longitude":144.2125119998,"latitude":-37.0640979992,"suburbtown":"CASTLEMAINE","gcc":"2rvic","classification":"Ball Sports"},{"sportsplayed":"tennis (outdoor)","City":"Baringhup","longitude":143.9737089999,"latitude":-36.9844869993,"suburbtown":"BARINGHUP","gcc":"2rvic","classification":"Ball Sports"},{"sportsplayed":"tennis (outdoor)","City":"Maldon","longitude":144.0658760004,"latitude":-36.9963309993,"suburbtown":"MALDON","gcc":"None","classification":"Ball Sports"},{"sportsplayed":"tennis (outdoor)","City":"Campbells Creek","longitude":144.2006669997,"latitude":-37.0932769994,"suburbtown":"CAMPBELLS CREEK","gcc":"2rvic","classification":"Ball Sports"},{"sportsplayed":"tennis (outdoor)","City":"Castlemaine","longitude":144.2197269999,"latitude":-37.0683369994,"suburbtown":"CASTLEMAINE","gcc":"2rvic","classification":"Ball Sports"},{"sportsplayed":"tennis (outdoor)","City":"Elphinstone","longitude":144.3469989998,"latitude":-37.0966579991,"suburbtown":"ELPHINSTONE","gcc":"None","classification":"Ball Sports"},{"sportsplayed":"tennis (outdoor)","City":"Harcourt","longitude":144.2570029997,"latitude":-37.0048929988,"suburbtown":"HARCOURT","gcc":"2rvic","classification":"Ball Sports"},{"sportsplayed":"tennis (outdoor)","City":null,"longitude":144.2594150003,"latitude":-36.9649779991,"suburbtown":"HARCOURT","gcc":"None","classification":"Ball Sports"},{"sportsplayed":"tennis (outdoor)","City":"Harcourt","longitude":144.2571370004,"latitude":-37.0041609994,"suburbtown":"HARCOURT","gcc":"2rvic","classification":"Ball Sports"},{"sportsplayed":"tennis (outdoor)","City":"Guildford","longitude":144.1656899999,"latitude":-37.1494879995,"suburbtown":"GUILDFORD","gcc":"None","classification":"Ball Sports"},{"sportsplayed":"tennis (outdoor)","City":"Metcalfe","longitude":144.4234780003,"latitude":-37.1048139988,"suburbtown":"METCALFE","gcc":"2rvic","classification":"Ball Sports"},{"sportsplayed":"tennis (outdoor)","City":"Newstead","longitude":144.0639169997,"latitude":-37.1090179991,"suburbtown":"NEWSTEAD","gcc":"None","classification":"Ball Sports"},{"sportsplayed":"tennis (outdoor)","City":null,"longitude":144.3563000005,"latitude":-36.9897229988,"suburbtown":"SUTTON GRANGE","gcc":"None","classification":"Ball Sports"},{"sportsplayed":"tennis (outdoor)","City":"Taradale","longitude":144.3529949997,"latitude":-37.1384999991,"suburbtown":"TARADALE","gcc":"None","classification":"Ball Sports"},{"sportsplayed":"tennis (outdoor)","City":null,"longitude":144.1767490004,"latitude":-37.1300359995,"suburbtown":"YAPEEN","gcc":"None","classification":"Ball Sports"},{"sportsplayed":"australian rules football","City":"Caramut","longitude":142.5238400004,"latitude":-37.9604939992,"suburbtown":"CARAMUT","gcc":"2rvic","classification":"Ball Sports"},{"sportsplayed":"australian rules football","City":"Port Fairy","longitude":142.2406530003,"latitude":-38.3764049995,"suburbtown":"PORT FAIRY","gcc":"2rvic","classification":"Ball Sports"},{"sportsplayed":"australian rules football","City":"Hawkesdale","longitude":142.3267519997,"latitude":-38.1091699989,"suburbtown":"HAWKESDALE","gcc":"2rvic","classification":"Ball Sports"},{"sportsplayed":"australian rules football","City":"Koroit","longitude":142.3678030003,"latitude":-38.2963609987,"suburbtown":"KORIOT","gcc":"2rvic","classification":"Ball Sports"},{"sportsplayed":"australian rules football","City":"Macarthur","longitude":142.0076269999,"latitude":-38.0383109994,"suburbtown":"MACARTHUR","gcc":"None","classification":"Ball Sports"},{"sportsplayed":"australian rules football","City":"Mortlake","longitude":142.8068779999,"latitude":-38.0763409995,"suburbtown":"MORTLAKE","gcc":"None","classification":"Ball Sports"},{"sportsplayed":"australian rules football","City":"Nirranda","longitude":142.7620439995,"latitude":-38.4962579991,"suburbtown":"NIRRANDA","gcc":"2rvic","classification":"Ball Sports"},{"sportsplayed":"australian rules football","City":"Panmure","longitude":142.7270889995,"latitude":-38.3340889987,"suburbtown":"PANMURE","gcc":"2rvic","classification":"Ball Sports"},{"sportsplayed":"australian rules football","City":"Woorndoo","longitude":142.797855,"latitude":-37.8858249992,"suburbtown":"WOORNDOO","gcc":"2rvic","classification":"Ball Sports"},{"sportsplayed":"cricket","City":"Caramut","longitude":142.5238400004,"latitude":-37.9604939992,"suburbtown":"CARAMUT","gcc":"2rvic","classification":"Ball Sports"},{"sportsplayed":"cricket","City":"Port Fairy","longitude":142.2365359997,"latitude":-38.3886109987,"suburbtown":"PORT FAIRY","gcc":"2rvic","classification":"Ball Sports"},{"sportsplayed":"cricket","City":"Port Fairy","longitude":142.2365359997,"latitude":-38.3886109987,"suburbtown":"PORT FAIRY","gcc":"2rvic","classification":"Ball Sports"},{"sportsplayed":"cricket","City":"Hawkesdale","longitude":142.3267519997,"latitude":-38.1091699989,"suburbtown":"HAWKESDALE","gcc":"2rvic","classification":"Ball Sports"},{"sportsplayed":"cricket","City":null,"longitude":142.3063160003,"latitude":-38.3552369988,"suburbtown":"KILLARNEY","gcc":"None","classification":"Ball Sports"},{"sportsplayed":"cricket","City":"Koroit","longitude":142.3678030003,"latitude":-38.2963609987,"suburbtown":"KORIOT","gcc":"2rvic","classification":"Ball Sports"},{"sportsplayed":"cricket","City":"Macarthur","longitude":142.0076269999,"latitude":-38.0383109994,"suburbtown":"MACARTHUR","gcc":"None","classification":"Ball Sports"},{"sportsplayed":"cricket","City":"Mortlake","longitude":142.8068779999,"latitude":-38.0763409995,"suburbtown":"MORTLAKE","gcc":"None","classification":"Ball Sports"},{"sportsplayed":"cricket","City":"Nirranda","longitude":142.7620439995,"latitude":-38.4962579991,"suburbtown":"NIRRANDA","gcc":"2rvic","classification":"Ball Sports"},{"sportsplayed":"cricket","City":"Panmure","longitude":142.7270889995,"latitude":-38.3340889987,"suburbtown":"PANMURE","gcc":"2rvic","classification":"Ball Sports"},{"sportsplayed":"cricket","City":"Purnim","longitude":142.6032519999,"latitude":-38.257775999,"suburbtown":"PURNIM","gcc":"2rvic","classification":"Ball Sports"},{"sportsplayed":"cricket","City":"Port Fairy","longitude":142.2348850004,"latitude":-38.3880099994,"suburbtown":"PORT FAIRY","gcc":"2rvic","classification":"Ball Sports"},{"sportsplayed":"cricket","City":"Port Fairy","longitude":142.2348850004,"latitude":-38.3880099994,"suburbtown":"PORT FAIRY","gcc":"2rvic","classification":"Ball Sports"},{"sportsplayed":"cricket","City":null,"longitude":142.574,"latitude":-38.3347999988,"suburbtown":"WANGOOM","gcc":"None","classification":"Ball Sports"},{"sportsplayed":"cricket","City":null,"longitude":142.4618519995,"latitude":-38.2409249987,"suburbtown":"WINSLOW","gcc":"None","classification":"Ball Sports"},{"sportsplayed":"cricket","City":"Woolsthorpe","longitude":142.4369479997,"latitude":-38.1794779992,"suburbtown":"WOOLSTHORPE","gcc":"2rvic","classification":"Ball Sports"},{"sportsplayed":"cricket","City":"Woorndoo","longitude":142.797855,"latitude":-37.8858249992,"suburbtown":"WOORNDOO","gcc":"2rvic","classification":"Ball Sports"},{"sportsplayed":"cricket","City":null,"longitude":142.0560679996,"latitude":-38.3127419989,"suburbtown":"YAMBUK","gcc":"None","classification":"Ball Sports"},{"sportsplayed":"croquet","City":"Koroit","longitude":142.3678030003,"latitude":-38.2963609987,"suburbtown":"KORIOT","gcc":"2rvic","classification":"Outdoor and Adventure Sports"},{"sportsplayed":"cycling","City":"Port Fairy","longitude":142.2392500003,"latitude":-38.3857699995,"suburbtown":"PORT FAIRY","gcc":"2rvic","classification":"Running and Cycling"},{"sportsplayed":"cycling","City":"Port Fairy","longitude":142.1851899995,"latitude":-38.3040149993,"suburbtown":"PORT FAIRY","gcc":"2rvic","classification":"Running and Cycling"},{"sportsplayed":"cycling","City":null,"longitude":142.574,"latitude":-38.3347999988,"suburbtown":"WANGOOM","gcc":"None","classification":"Running and Cycling"},{"sportsplayed":"cycling","City":null,"longitude":142.574,"latitude":-38.3347999988,"suburbtown":"WANGOOM","gcc":"None","classification":"Running and Cycling"},{"sportsplayed":"equestrian","City":null,"longitude":142.7032579995,"latitude":-38.0025799989,"suburbtown":"HEXHAM","gcc":"None","classification":"Outdoor and Adventure Sports"},{"sportsplayed":"equestrian","City":"Koroit","longitude":142.3678030003,"latitude":-38.2963609987,"suburbtown":"KORIOT","gcc":"2rvic","classification":"Outdoor and Adventure Sports"},{"sportsplayed":"equestrian","City":"Macarthur","longitude":142.0076269999,"latitude":-38.0383109994,"suburbtown":"MACARTHUR","gcc":"None","classification":"Outdoor and Adventure Sports"},{"sportsplayed":"equestrian","City":"Penshurst","longitude":142.3028590004,"latitude":-37.8626739987,"suburbtown":"PENSHURST","gcc":"None","classification":"Outdoor and Adventure Sports"},{"sportsplayed":"equestrian","City":null,"longitude":142.2520639998,"latitude":-38.2157689992,"suburbtown":"TARRONE","gcc":"None","classification":"Outdoor and Adventure Sports"},{"sportsplayed":"equestrian","City":null,"longitude":142.4618519995,"latitude":-38.2409249987,"suburbtown":"WINSLOW","gcc":"None","classification":"Outdoor and Adventure Sports"},{"sportsplayed":"fitness \/ gymnasium workouts","City":"Port Fairy","longitude":142.2348850004,"latitude":-38.3880099994,"suburbtown":"PORT FAIRY","gcc":"2rvic","classification":"Strength and Fitness"},{"sportsplayed":"golf","City":null,"longitude":142.6978640005,"latitude":-38.1931839988,"suburbtown":"FRAMLINGHAM EAST","gcc":"None","classification":"Outdoor and Adventure Sports"},{"sportsplayed":"golf","City":"Hawkesdale","longitude":142.3336879997,"latitude":-38.1101729989,"suburbtown":"HAWKESDALE","gcc":"2rvic","classification":"Outdoor and Adventure Sports"},{"sportsplayed":"golf","City":"Macarthur","longitude":141.9903939997,"latitude":-38.0310479992,"suburbtown":"MACARTHUR","gcc":"None","classification":"Outdoor and Adventure Sports"},{"sportsplayed":"golf","City":"Mortlake","longitude":142.8007680005,"latitude":-38.074598999,"suburbtown":"MORTLAKE","gcc":"None","classification":"Outdoor and Adventure Sports"},{"sportsplayed":"golf","City":null,"longitude":142.8756109995,"latitude":-38.6084749992,"suburbtown":"PETERBOROUGH","gcc":"None","classification":"Outdoor and Adventure Sports"},{"sportsplayed":"golf","City":null,"longitude":142.2841149997,"latitude":-38.3591019989,"suburbtown":"PORT FAIRY","gcc":"None","classification":"Outdoor and Adventure Sports"},{"sportsplayed":"lawn bowls","City":"Koroit","longitude":142.3678030003,"latitude":-38.2963609987,"suburbtown":"KORIOT","gcc":"2rvic","classification":"Outdoor and Adventure Sports"},{"sportsplayed":"lawn bowls","City":"Macarthur","longitude":142.0010369998,"latitude":-38.033369999,"suburbtown":"MACARTHUR","gcc":"None","classification":"Outdoor and Adventure Sports"},{"sportsplayed":"lawn bowls","City":"Mortlake","longitude":142.8090239999,"latitude":-38.0823739994,"suburbtown":"MORTLAKE","gcc":"None","classification":"Outdoor and Adventure Sports"},{"sportsplayed":"lawn bowls","City":"Port Fairy","longitude":142.2326599998,"latitude":-38.3844239989,"suburbtown":"PORT FAIRY","gcc":"2rvic","classification":"Outdoor and Adventure Sports"},{"sportsplayed":"netball","City":"Caramut","longitude":142.5238400004,"latitude":-37.9604939992,"suburbtown":"CARAMUT","gcc":"2rvic","classification":"Ball Sports"},{"sportsplayed":"netball","City":"Port Fairy","longitude":142.2365359997,"latitude":-38.3886109987,"suburbtown":"PORT FAIRY","gcc":"2rvic","classification":"Ball Sports"},{"sportsplayed":"netball","City":"Port Fairy","longitude":142.2406530003,"latitude":-38.3764049995,"suburbtown":"PORT FAIRY","gcc":"2rvic","classification":"Ball Sports"},{"sportsplayed":"netball","City":"Hawkesdale","longitude":142.3267519997,"latitude":-38.1091699989,"suburbtown":"HAWKESDALE","gcc":"2rvic","classification":"Ball Sports"},{"sportsplayed":"netball","City":"Koroit","longitude":142.3678030003,"latitude":-38.2963609987,"suburbtown":"KORIOT","gcc":"2rvic","classification":"Ball Sports"},{"sportsplayed":"netball","City":"Macarthur","longitude":142.0076269999,"latitude":-38.0383109994,"suburbtown":"MACARTHUR","gcc":"None","classification":"Ball Sports"},{"sportsplayed":"netball","City":"Mortlake","longitude":142.8068779999,"latitude":-38.0763409995,"suburbtown":"MORTLAKE","gcc":"None","classification":"Ball Sports"},{"sportsplayed":"netball","City":"Nirranda","longitude":142.7620439995,"latitude":-38.4962579991,"suburbtown":"NIRRANDA","gcc":"2rvic","classification":"Ball Sports"},{"sportsplayed":"netball","City":"Panmure","longitude":142.7270889995,"latitude":-38.3340889987,"suburbtown":"PANMURE","gcc":"2rvic","classification":"Ball Sports"},{"sportsplayed":"netball","City":"Woorndoo","longitude":142.797855,"latitude":-37.8858249992,"suburbtown":"WOORNDOO","gcc":"2rvic","classification":"Ball Sports"},{"sportsplayed":"open space","City":"Framlingham","longitude":142.6643590003,"latitude":-38.2559089992,"suburbtown":"FRAMLINGHAM","gcc":"2rvic","classification":"Outdoor and Adventure Sports"},{"sportsplayed":"sailing","City":"Port Fairy","longitude":142.2424999999,"latitude":-38.3879999987,"suburbtown":"PORT FAIRY","gcc":"2rvic","classification":"Water Sports"},{"sportsplayed":"shooting sports","City":"Woolsthorpe","longitude":142.3840340003,"latitude":-38.1892319993,"suburbtown":"WOOLSTHORPE","gcc":"2rvic","classification":"Outdoor and Adventure Sports"},{"sportsplayed":"squash \/ racquetball","City":"Port Fairy","longitude":142.2348850004,"latitude":-38.3880099994,"suburbtown":"PORT FAIRY","gcc":"2rvic","classification":"Outdoor and Adventure Sports"},{"sportsplayed":"surf life saving","City":"Port Fairy","longitude":142.2431909999,"latitude":-38.379912999,"suburbtown":"PORT FAIRY","gcc":"2rvic","classification":"Water Sports"},{"sportsplayed":"swimming","City":"Port Fairy","longitude":142.2348850004,"latitude":-38.3880099994,"suburbtown":"PORT FAIRY","gcc":"2rvic","classification":"Water Sports"},{"sportsplayed":"swimming","City":"Hawkesdale","longitude":142.3215610001,"latitude":-38.1046119992,"suburbtown":"HAWKESDALE","gcc":"2rvic","classification":"Water Sports"},{"sportsplayed":"swimming","City":"Macarthur","longitude":142.0010369998,"latitude":-38.033369999,"suburbtown":"MACARTHUR","gcc":"None","classification":"Water Sports"},{"sportsplayed":"swimming","City":"Mortlake","longitude":142.809357,"latitude":-38.080614999,"suburbtown":"MORTLAKE","gcc":"None","classification":"Water Sports"},{"sportsplayed":"tennis (indoor)","City":"Port Fairy","longitude":142.2406530003,"latitude":-38.3764049995,"suburbtown":"PORT FAIRY","gcc":"2rvic","classification":"Ball Sports"},{"sportsplayed":"tennis (outdoor)","City":"Hawkesdale","longitude":142.3267519997,"latitude":-38.1091699989,"suburbtown":"HAWKESDALE","gcc":"2rvic","classification":"Ball Sports"},{"sportsplayed":"tennis (outdoor)","City":"Koroit","longitude":142.3678030003,"latitude":-38.2963609987,"suburbtown":"KORIOT","gcc":"2rvic","classification":"Ball Sports"},{"sportsplayed":"tennis (outdoor)","City":"Macarthur","longitude":142.0010369998,"latitude":-38.033369999,"suburbtown":"MACARTHUR","gcc":"None","classification":"Ball Sports"},{"sportsplayed":"tennis (outdoor)","City":"Mortlake","longitude":142.8068779999,"latitude":-38.0763409995,"suburbtown":"MORTLAKE","gcc":"None","classification":"Ball Sports"},{"sportsplayed":"tennis (outdoor)","City":"Panmure","longitude":142.7270889995,"latitude":-38.3340889987,"suburbtown":"PANMURE","gcc":"2rvic","classification":"Ball Sports"},{"sportsplayed":"tennis (outdoor)","City":"Port Fairy","longitude":142.2348850004,"latitude":-38.3880099994,"suburbtown":"PORT FAIRY","gcc":"2rvic","classification":"Ball Sports"},{"sportsplayed":"aerobics","City":"Kinglake West","longitude":145.2784999998,"latitude":-37.4801109986,"suburbtown":"KINGLAKE WEST","gcc":"2gmel","classification":"Strength and Fitness"},{"sportsplayed":"athletics","City":"Alexandra","longitude":145.7125979999,"latitude":-37.1878709994,"suburbtown":"ALEXANDRA","gcc":"None","classification":"Running and Cycling"},{"sportsplayed":"australian rules football","City":"Alexandra","longitude":145.7064950004,"latitude":-37.1854079989,"suburbtown":"ALEXANDRA","gcc":"None","classification":"Ball Sports"},{"sportsplayed":"australian rules football","City":"Marysville","longitude":145.7508379999,"latitude":-37.5128859989,"suburbtown":"MARYSVILLE","gcc":"2rvic","classification":"Ball Sports"},{"sportsplayed":"australian rules football","City":"Kinglake","longitude":145.3159310002,"latitude":-37.509529999,"suburbtown":"KINGLAKE","gcc":"2gmel","classification":"Ball Sports"},{"sportsplayed":"australian rules football","City":"Thornton","longitude":145.7982529997,"latitude":-37.2572729991,"suburbtown":"THORNTON","gcc":"None","classification":"Ball Sports"},{"sportsplayed":"australian rules football","City":"Yea","longitude":145.4235140004,"latitude":-37.2092759987,"suburbtown":"YEA","gcc":"2rvic","classification":"Ball Sports"},{"sportsplayed":"australian rules football","City":"Melbourne","longitude":145.1893920001,"latitude":-37.6424059991,"suburbtown":"HURSTBRIDGE??","gcc":"2gmel","classification":"Ball Sports"},{"sportsplayed":"basketball","City":"Alexandra","longitude":145.7004770001,"latitude":-37.1933869992,"suburbtown":"ALEXANDRA","gcc":"None","classification":"Ball Sports"},{"sportsplayed":"basketball","City":"Eildon","longitude":145.9077990002,"latitude":-37.2336119988,"suburbtown":"EILDON","gcc":"2rvic","classification":"Ball Sports"},{"sportsplayed":"basketball","City":"Marysville","longitude":145.7508379999,"latitude":-37.5128859989,"suburbtown":"MARYSVILLE","gcc":"2rvic","classification":"Ball Sports"},{"sportsplayed":"basketball","City":null,"longitude":145.3152980005,"latitude":-37.5084659987,"suburbtown":"KINGLAKE","gcc":"None","classification":"Ball Sports"},{"sportsplayed":"bmx","City":"Kinglake","longitude":145.3394480003,"latitude":-37.5294989992,"suburbtown":"KINGLAKE","gcc":"2gmel","classification":"Outdoor and Adventure Sports"},{"sportsplayed":"bmx","City":null,"longitude":145.2740839995,"latitude":-37.467343999,"suburbtown":"PHEASANT CREEK","gcc":"None","classification":"Outdoor and Adventure Sports"},{"sportsplayed":"bmx","City":"Yea","longitude":145.3371000001,"latitude":-37.3339459992,"suburbtown":"FLOWERDALE","gcc":"2rvic","classification":"Outdoor and Adventure Sports"},{"sportsplayed":"bmx","City":"Marysville","longitude":145.7508379999,"latitude":-37.5128859989,"suburbtown":"MARYSVILLE","gcc":"2rvic","classification":"Outdoor and Adventure Sports"},{"sportsplayed":"bmx","City":"Alexandra","longitude":145.7075999999,"latitude":-37.1917639994,"suburbtown":"ALEXANDRA","gcc":"None","classification":"Outdoor and Adventure Sports"},{"sportsplayed":"bmx","City":"Yea","longitude":145.4300390005,"latitude":-37.214493999,"suburbtown":"YEA","gcc":"2rvic","classification":"Outdoor and Adventure Sports"},{"sportsplayed":"cricket","City":"Alexandra","longitude":145.7064950004,"latitude":-37.1854079989,"suburbtown":"ALEXANDRA","gcc":"None","classification":"Ball Sports"},{"sportsplayed":"cricket","City":"Alexandra","longitude":145.7003289998,"latitude":-37.1925559993,"suburbtown":"ALEXANDRA","gcc":"None","classification":"Ball Sports"},{"sportsplayed":"cricket","City":"Marysville","longitude":145.7508379999,"latitude":-37.5128859989,"suburbtown":"MARYSVILLE","gcc":"2rvic","classification":"Ball Sports"},{"sportsplayed":"cricket","City":"Kinglake","longitude":145.3159310002,"latitude":-37.509529999,"suburbtown":"KINGLAKE","gcc":"2gmel","classification":"Ball Sports"},{"sportsplayed":"cricket","City":"Kinglake West","longitude":145.2576219995,"latitude":-37.4823659991,"suburbtown":"KINGLAKE WEST","gcc":"2gmel","classification":"Ball Sports"},{"sportsplayed":"cricket","City":"Alexandra","longitude":145.7125979999,"latitude":-37.1878709994,"suburbtown":"ALEXANDRA","gcc":"None","classification":"Ball Sports"},{"sportsplayed":"cricket","City":"Molesworth","longitude":145.5389309998,"latitude":-37.1624819992,"suburbtown":"MOLESWORTH","gcc":"None","classification":"Ball Sports"},{"sportsplayed":"cricket","City":null,"longitude":145.2997089996,"latitude":-37.2918509991,"suburbtown":"FLOWERDALE","gcc":"None","classification":"Ball Sports"},{"sportsplayed":"cricket","City":"Thornton","longitude":145.7982529997,"latitude":-37.2572729991,"suburbtown":"THORNTON","gcc":"None","classification":"Ball Sports"},{"sportsplayed":"cricket","City":"Toolangi","longitude":145.4751620001,"latitude":-37.5363739994,"suburbtown":"TOOLANGI","gcc":"2gmel","classification":"Ball Sports"},{"sportsplayed":"cricket","City":"Yarck","longitude":145.6155489996,"latitude":-37.0989759989,"suburbtown":"YARCK","gcc":"2rvic","classification":"Ball Sports"},{"sportsplayed":"cricket","City":"Yea","longitude":145.4039230003,"latitude":-37.2113799993,"suburbtown":"YEA","gcc":"2rvic","classification":"Ball Sports"},{"sportsplayed":"cricket","City":"Yea","longitude":145.4235140004,"latitude":-37.2092759987,"suburbtown":"YEA","gcc":"2rvic","classification":"Ball Sports"},{"sportsplayed":"cycling","City":"Melbourne","longitude":145.3159260004,"latitude":-37.514150999,"suburbtown":null,"gcc":"2gmel","classification":"Running and Cycling"},{"sportsplayed":"cycling","City":null,"longitude":145.6859419994,"latitude":-37.4133569987,"suburbtown":null,"gcc":"None","classification":"Running and Cycling"},{"sportsplayed":"cycling","City":null,"longitude":145.8782240005,"latitude":-37.4948139994,"suburbtown":null,"gcc":"None","classification":"Running and Cycling"},{"sportsplayed":"equestrian","City":"Alexandra","longitude":145.7120360004,"latitude":-37.1831859988,"suburbtown":"ALEXANDRA","gcc":"None","classification":"Outdoor and Adventure Sports"},{"sportsplayed":"equestrian","City":"Marysville","longitude":145.7508379999,"latitude":-37.5128859989,"suburbtown":"MARYSVILLE","gcc":"2rvic","classification":"Outdoor and Adventure Sports"},{"sportsplayed":"equestrian","City":"Kinglake","longitude":145.3369000003,"latitude":-37.5258149992,"suburbtown":"KINGLAKE","gcc":"2gmel","classification":"Outdoor and Adventure Sports"},{"sportsplayed":"equestrian","City":"Kinglake West","longitude":145.2449860001,"latitude":-37.4861119989,"suburbtown":"KINGLAKE WEST","gcc":"2gmel","classification":"Outdoor and Adventure Sports"},{"sportsplayed":"fitness \/ gymnasium workouts","City":"Alexandra","longitude":145.7004770001,"latitude":-37.1933869992,"suburbtown":"ALEXANDRA","gcc":"None","classification":"Strength and Fitness"},{"sportsplayed":"fitness \/ gymnasium workouts","City":"Kinglake West","longitude":145.2784999998,"latitude":-37.4801109986,"suburbtown":"KINGLAKE WEST","gcc":"2gmel","classification":"Strength and Fitness"},{"sportsplayed":"golf","City":"Alexandra","longitude":145.7160180006,"latitude":-37.1833209993,"suburbtown":"ALEXANDRA","gcc":"None","classification":"Outdoor and Adventure Sports"},{"sportsplayed":"golf","City":"Eildon","longitude":145.9020950002,"latitude":-37.2577649995,"suburbtown":"EILDON","gcc":"2rvic","classification":"Outdoor and Adventure Sports"},{"sportsplayed":"golf","City":null,"longitude":145.7477640002,"latitude":-37.4945459987,"suburbtown":"MARYSVILLE","gcc":"None","classification":"Outdoor and Adventure Sports"},{"sportsplayed":"golf","City":"Yea","longitude":145.4015920002,"latitude":-37.2131659989,"suburbtown":"YEA","gcc":"2rvic","classification":"Outdoor and Adventure Sports"},{"sportsplayed":"lawn bowls","City":"Alexandra","longitude":145.7112369995,"latitude":-37.1888589992,"suburbtown":"ALEXANDRA","gcc":"None","classification":"Outdoor and Adventure Sports"},{"sportsplayed":"lawn bowls","City":"Eildon","longitude":145.9079219999,"latitude":-37.2317559987,"suburbtown":"EILDON","gcc":"2rvic","classification":"Outdoor and Adventure Sports"},{"sportsplayed":"lawn bowls","City":null,"longitude":145.7484070004,"latitude":-37.4946969991,"suburbtown":"MARYSVILLE","gcc":"None","classification":"Outdoor and Adventure Sports"},{"sportsplayed":"lawn bowls","City":"Yea","longitude":145.4240850002,"latitude":-37.2121339992,"suburbtown":"YEA","gcc":"2rvic","classification":"Outdoor and Adventure Sports"},{"sportsplayed":"netball","City":"Alexandra","longitude":145.7004770001,"latitude":-37.1933869992,"suburbtown":"ALEXANDRA","gcc":"None","classification":"Ball Sports"},{"sportsplayed":"netball","City":"Alexandra","longitude":145.7064950004,"latitude":-37.1854079989,"suburbtown":"ALEXANDRA","gcc":"None","classification":"Ball Sports"},{"sportsplayed":"netball","City":"Eildon","longitude":145.9077990002,"latitude":-37.2336119988,"suburbtown":"EILDON","gcc":"2rvic","classification":"Ball Sports"},{"sportsplayed":"netball","City":"Kinglake","longitude":145.3159310002,"latitude":-37.509529999,"suburbtown":"KINGLAKE","gcc":"2gmel","classification":"Ball Sports"},{"sportsplayed":"netball","City":null,"longitude":145.5532250001,"latitude":-37.0008559989,"suburbtown":"TERIP TERIP","gcc":"None","classification":"Ball Sports"},{"sportsplayed":"netball","City":"Thornton","longitude":145.7982529997,"latitude":-37.2572729991,"suburbtown":"THORNTON","gcc":"None","classification":"Ball Sports"},{"sportsplayed":"netball","City":"Yea","longitude":145.4235140004,"latitude":-37.2092759987,"suburbtown":"YEA","gcc":"2rvic","classification":"Ball Sports"},{"sportsplayed":"netball (indoor)","City":null,"longitude":145.3152980005,"latitude":-37.5084659987,"suburbtown":"KINGLAKE","gcc":"None","classification":"Ball Sports"},{"sportsplayed":"netball (indoor)","City":"Yea","longitude":145.4072199996,"latitude":-37.2151779989,"suburbtown":"YEA","gcc":"2rvic","classification":"Ball Sports"},{"sportsplayed":"skating","City":"Alexandra","longitude":145.7076480002,"latitude":-37.1916549992,"suburbtown":"ALEXANDRA","gcc":"None","classification":"Outdoor and Adventure Sports"},{"sportsplayed":"skating","City":"Kinglake","longitude":145.3394480003,"latitude":-37.5294989992,"suburbtown":"KINGLAKE","gcc":"2gmel","classification":"Outdoor and Adventure Sports"},{"sportsplayed":"skating","City":"Yea","longitude":145.3371000001,"latitude":-37.3339459992,"suburbtown":"FLOWERDALE","gcc":"2rvic","classification":"Outdoor and Adventure Sports"},{"sportsplayed":"skating","City":"Marysville","longitude":145.7508379999,"latitude":-37.5128859989,"suburbtown":"MARYSVILLE","gcc":"2rvic","classification":"Outdoor and Adventure Sports"},{"sportsplayed":"skating","City":"Yea","longitude":145.4300390005,"latitude":-37.214493999,"suburbtown":"YEA","gcc":"2rvic","classification":"Outdoor and Adventure Sports"},{"sportsplayed":"soccer","City":"Alexandra","longitude":145.7125979999,"latitude":-37.1878709994,"suburbtown":"ALEXANDRA","gcc":"None","classification":"Ball Sports"},{"sportsplayed":"swimming","City":"Alexandra","longitude":145.713059,"latitude":-37.1889139992,"suburbtown":"ALEXANDRA","gcc":"None","classification":"Water Sports"},{"sportsplayed":"swimming","City":"Eildon","longitude":145.9079810004,"latitude":-37.2329929987,"suburbtown":"EILDON","gcc":"2rvic","classification":"Water Sports"},{"sportsplayed":"swimming","City":"Marysville","longitude":145.7487579996,"latitude":-37.5113199994,"suburbtown":"MARYSVILLE","gcc":"2rvic","classification":"Water Sports"},{"sportsplayed":"swimming","City":"Yea","longitude":145.4222399995,"latitude":-37.2124879995,"suburbtown":"YEA","gcc":"2rvic","classification":"Water Sports"},{"sportsplayed":"tennis (outdoor)","City":"Alexandra","longitude":145.7156500003,"latitude":-37.1884569994,"suburbtown":"ALEXANDRA","gcc":"None","classification":"Ball Sports"},{"sportsplayed":"tennis (outdoor)","City":"Buxton","longitude":145.7061440003,"latitude":-37.4258179991,"suburbtown":"BUXTON","gcc":"None","classification":"Ball Sports"},{"sportsplayed":"tennis (outdoor)","City":"Eildon","longitude":145.9116759998,"latitude":-37.2338639987,"suburbtown":"EILDON","gcc":"2rvic","classification":"Ball Sports"},{"sportsplayed":"tennis (outdoor)","City":"Marysville","longitude":145.7508379999,"latitude":-37.5128859989,"suburbtown":"MARYSVILLE","gcc":"2rvic","classification":"Ball Sports"},{"sportsplayed":"tennis (outdoor)","City":null,"longitude":145.6039379995,"latitude":-37.0167989987,"suburbtown":"GOBUR","gcc":"None","classification":"Ball Sports"},{"sportsplayed":"tennis (outdoor)","City":"Kinglake","longitude":145.3159310002,"latitude":-37.509529999,"suburbtown":"KINGLAKE","gcc":"2gmel","classification":"Ball Sports"},{"sportsplayed":"tennis (outdoor)","City":"Kinglake West","longitude":145.2576219995,"latitude":-37.4823659991,"suburbtown":"KINGLAKE WEST","gcc":"2gmel","classification":"Ball Sports"},{"sportsplayed":"tennis (outdoor)","City":null,"longitude":145.2997089996,"latitude":-37.2918509991,"suburbtown":"FLOWERDALE","gcc":"None","classification":"Ball Sports"},{"sportsplayed":"tennis (outdoor)","City":null,"longitude":145.2198519999,"latitude":-37.2378319993,"suburbtown":"STRATH CREEK","gcc":"None","classification":"Ball Sports"},{"sportsplayed":"tennis (outdoor)","City":null,"longitude":145.5533350004,"latitude":-37.0009349993,"suburbtown":"TERIP TERIP","gcc":"None","classification":"Ball Sports"},{"sportsplayed":"tennis (outdoor)","City":"Toolangi","longitude":145.4733670002,"latitude":-37.5382599993,"suburbtown":"TOOLANGI","gcc":"2gmel","classification":"Ball Sports"},{"sportsplayed":"tennis (outdoor)","City":"Yarck","longitude":145.6155489996,"latitude":-37.0989759989,"suburbtown":"YARCK","gcc":"2rvic","classification":"Ball Sports"},{"sportsplayed":"tennis (outdoor)","City":"Yea","longitude":145.4235140004,"latitude":-37.2092759987,"suburbtown":"YEA","gcc":"2rvic","classification":"Ball Sports"},{"sportsplayed":"archery","City":"Melbourne","longitude":145.1327439996,"latitude":-37.6267259993,"suburbtown":"YARRAMBAT","gcc":"2gmel","classification":"Outdoor and Adventure Sports"},{"sportsplayed":"australian rules football","City":"Melbourne","longitude":145.240376,"latitude":-37.6430219991,"suburbtown":"PANTON HILL??","gcc":"2gmel","classification":"Ball Sports"},{"sportsplayed":"australian rules football","City":"Melbourne","longitude":145.189896,"latitude":-37.6397049992,"suburbtown":"HURSTBRIDGE??","gcc":"2gmel","classification":"Ball Sports"},{"sportsplayed":"australian rules football","City":"Melbourne","longitude":145.1550589998,"latitude":-37.6722389988,"suburbtown":"DIAMOND CREEK","gcc":"2gmel","classification":"Ball Sports"},{"sportsplayed":"australian rules football","City":"Melbourne","longitude":145.1154730005,"latitude":-37.684619999,"suburbtown":"GREENSBOROUGH??","gcc":"2gmel","classification":"Ball Sports"},{"sportsplayed":"australian rules football","City":"Melbourne","longitude":145.1453779999,"latitude":-37.7152269988,"suburbtown":"ELTHAM","gcc":"2gmel","classification":"Ball Sports"},{"sportsplayed":"australian rules football","City":"Melbourne","longitude":145.1546289995,"latitude":-37.6743489991,"suburbtown":"DIAMOND CREEK","gcc":"2gmel","classification":"Ball Sports"},{"sportsplayed":"australian rules football","City":"Melbourne","longitude":145.1239190003,"latitude":-37.6720409986,"suburbtown":"PLENTY","gcc":"2gmel","classification":"Ball Sports"},{"sportsplayed":"australian rules football","City":"Melbourne","longitude":145.1778410002,"latitude":-37.701711999,"suburbtown":"RESEARCH","gcc":"2gmel","classification":"Ball Sports"},{"sportsplayed":"australian rules football","City":"Melbourne","longitude":145.1437179997,"latitude":-37.7197119987,"suburbtown":"ELTHAM","gcc":"2gmel","classification":"Ball Sports"},{"sportsplayed":"australian rules football","City":"Melbourne","longitude":145.1365689998,"latitude":-37.638141999,"suburbtown":"YARRAMBAT","gcc":"2gmel","classification":"Ball Sports"},{"sportsplayed":"badminton","City":"Melbourne","longitude":145.1082630006,"latitude":-37.6882519987,"suburbtown":"GREENSBOROUGH??","gcc":"2gmel","classification":"Outdoor and Adventure Sports"},{"sportsplayed":"badminton","City":"Melbourne","longitude":145.1417480004,"latitude":-37.723283999,"suburbtown":"ELTHAM","gcc":"2gmel","classification":"Outdoor and Adventure Sports"},{"sportsplayed":"baseball","City":"Melbourne","longitude":145.1492379997,"latitude":-37.6791259994,"suburbtown":"DIAMOND CREEK","gcc":"2gmel","classification":"Outdoor and Adventure Sports"},{"sportsplayed":"baseball","City":"Melbourne","longitude":145.1800309997,"latitude":-37.6596039994,"suburbtown":"WATTLE GLEN","gcc":"2gmel","classification":"Outdoor and Adventure Sports"},{"sportsplayed":"basketball","City":"Melbourne","longitude":145.1660550001,"latitude":-37.6738659992,"suburbtown":"DIAMOND CREEK","gcc":"2gmel","classification":"Ball Sports"},{"sportsplayed":"basketball","City":"Melbourne","longitude":145.1558990001,"latitude":-37.674474999,"suburbtown":"DIAMOND CREEK","gcc":"2gmel","classification":"Ball Sports"},{"sportsplayed":"basketball","City":"Melbourne","longitude":145.1082630006,"latitude":-37.6882519987,"suburbtown":"GREENSBOROUGH??","gcc":"2gmel","classification":"Ball Sports"},{"sportsplayed":"basketball","City":"Melbourne","longitude":145.1417480004,"latitude":-37.723283999,"suburbtown":"ELTHAM","gcc":"2gmel","classification":"Ball Sports"},{"sportsplayed":"cricket","City":"Melbourne","longitude":145.240376,"latitude":-37.6430219991,"suburbtown":"PANTON HILL??","gcc":"2gmel","classification":"Ball Sports"},{"sportsplayed":"cricket","City":"Melbourne","longitude":145.2058020002,"latitude":-37.5846369994,"suburbtown":"ARTHURS CREEK??","gcc":"2gmel","classification":"Ball Sports"},{"sportsplayed":"cricket","City":"Melbourne","longitude":145.189896,"latitude":-37.6397049992,"suburbtown":"HURSTBRIDGE??","gcc":"2gmel","classification":"Ball Sports"},{"sportsplayed":"cricket","City":"Melbourne","longitude":145.1492379997,"latitude":-37.6791259994,"suburbtown":"DIAMOND CREEK","gcc":"2gmel","classification":"Ball Sports"},{"sportsplayed":"cricket","City":"Melbourne","longitude":145.1550589998,"latitude":-37.6722389988,"suburbtown":"DIAMOND CREEK","gcc":"2gmel","classification":"Ball Sports"},{"sportsplayed":"cricket","City":"Melbourne","longitude":145.1154730005,"latitude":-37.684619999,"suburbtown":"GREENSBOROUGH??","gcc":"2gmel","classification":"Ball Sports"},{"sportsplayed":"cricket","City":"Melbourne","longitude":145.1453779999,"latitude":-37.7152269988,"suburbtown":"ELTHAM","gcc":"2gmel","classification":"Ball Sports"},{"sportsplayed":"cricket","City":"Melbourne","longitude":145.1405840005,"latitude":-37.7343999994,"suburbtown":"ELTHAM","gcc":"2gmel","classification":"Ball Sports"},{"sportsplayed":"cricket","City":"Melbourne","longitude":145.1502629999,"latitude":-37.6956309987,"suburbtown":"ELTHAM NORTH","gcc":"2gmel","classification":"Ball Sports"},{"sportsplayed":"cricket","City":"Melbourne","longitude":145.1893920001,"latitude":-37.6424059991,"suburbtown":"HURSTBRIDGE??","gcc":"2gmel","classification":"Ball Sports"},{"sportsplayed":"cricket","City":"Melbourne","longitude":145.2141530004,"latitude":-37.6906409994,"suburbtown":"KANGAROO GROUND","gcc":"2gmel","classification":"Ball Sports"},{"sportsplayed":"cricket","City":"Melbourne","longitude":145.1546289995,"latitude":-37.6743489991,"suburbtown":"DIAMOND CREEK","gcc":"2gmel","classification":"Ball Sports"},{"sportsplayed":"cricket","City":"Melbourne","longitude":145.1239190003,"latitude":-37.6720409986,"suburbtown":"PLENTY","gcc":"2gmel","classification":"Ball Sports"},{"sportsplayed":"cricket","City":"Melbourne","longitude":145.1778410002,"latitude":-37.701711999,"suburbtown":"RESEARCH","gcc":"2gmel","classification":"Ball Sports"},{"sportsplayed":"cricket","City":"Melbourne","longitude":145.2596069998,"latitude":-37.6040929989,"suburbtown":"ST ANDREWS","gcc":"2gmel","classification":"Ball Sports"},{"sportsplayed":"cricket","City":"Melbourne","longitude":145.268909,"latitude":-37.5341119993,"suburbtown":"STRATHEWEN","gcc":"2gmel","classification":"Ball Sports"},{"sportsplayed":"cricket","City":"Melbourne","longitude":145.1437179997,"latitude":-37.7197119987,"suburbtown":"ELTHAM","gcc":"2gmel","classification":"Ball Sports"},{"sportsplayed":"cricket","City":"Melbourne","longitude":145.1800309997,"latitude":-37.6596039994,"suburbtown":"WATTLE GLEN","gcc":"2gmel","classification":"Ball Sports"},{"sportsplayed":"cricket","City":"Melbourne","longitude":145.1365689998,"latitude":-37.638141999,"suburbtown":"YARRAMBAT","gcc":"2gmel","classification":"Ball Sports"},{"sportsplayed":"equestrian","City":"Melbourne","longitude":145.1425309997,"latitude":-37.735796999,"suburbtown":"ELTHAM","gcc":"2gmel","classification":"Outdoor and Adventure Sports"},{"sportsplayed":"cricket","City":"Melbourne","longitude":144.9704719999,"latitude":-37.8507009991,"suburbtown":"ALBERT PARK","gcc":"2gmel","classification":"Ball Sports"},{"sportsplayed":"equestrian","City":"Melbourne","longitude":145.2008010005,"latitude":-37.6345059993,"suburbtown":"HURSTBRIDGE","gcc":"2gmel","classification":"Outdoor and Adventure Sports"},{"sportsplayed":"equestrian","City":"Melbourne","longitude":145.2210729996,"latitude":-37.6767129987,"suburbtown":"KANGAROO GROUND","gcc":"2gmel","classification":"Outdoor and Adventure Sports"},{"sportsplayed":"equestrian","City":"Melbourne","longitude":145.2810099995,"latitude":-37.6307989987,"suburbtown":"ST ANDREWS","gcc":"2gmel","classification":"Outdoor and Adventure Sports"},{"sportsplayed":"equestrian","City":"Kinglake","longitude":145.3369749998,"latitude":-37.5256189989,"suburbtown":"KINGLAKE","gcc":"2gmel","classification":"Outdoor and Adventure Sports"},{"sportsplayed":"equestrian","City":"Melbourne","longitude":145.1325519998,"latitude":-37.622313999,"suburbtown":"YARRAMBAT","gcc":"2gmel","classification":"Outdoor and Adventure Sports"},{"sportsplayed":"fitness \/ gymnasium workouts","City":"Melbourne","longitude":145.1603000004,"latitude":-37.6738519991,"suburbtown":"DIAMOND CREEK","gcc":"2gmel","classification":"Strength and Fitness"},{"sportsplayed":"fitness \/ gymnasium workouts","City":"Melbourne","longitude":145.1867610004,"latitude":-37.6991299991,"suburbtown":"RESEARCH","gcc":"2gmel","classification":"Strength and Fitness"},{"sportsplayed":"fitness \/ gymnasium workouts","City":"Melbourne","longitude":145.1490959999,"latitude":-37.6727339992,"suburbtown":"DIAMOND CREEK","gcc":"2gmel","classification":"Strength and Fitness"},{"sportsplayed":"fitness \/ gymnasium workouts","City":"Melbourne","longitude":145.1558990001,"latitude":-37.674474999,"suburbtown":"DIAMOND CREEK","gcc":"2gmel","classification":"Strength and Fitness"},{"sportsplayed":"fitness \/ gymnasium workouts","City":"Melbourne","longitude":145.1082630006,"latitude":-37.6882519987,"suburbtown":"GREENSBOROUGH??","gcc":"2gmel","classification":"Strength and Fitness"},{"sportsplayed":"fitness \/ gymnasium workouts","City":"Melbourne","longitude":145.1417480004,"latitude":-37.723283999,"suburbtown":"ELTHAM","gcc":"2gmel","classification":"Strength and Fitness"},{"sportsplayed":"fitness \/ gymnasium workouts","City":"Melbourne","longitude":145.1854370003,"latitude":-37.6987659987,"suburbtown":"RESEARCH","gcc":"2gmel","classification":"Strength and Fitness"},{"sportsplayed":"fitness \/ gymnasium workouts","City":"Melbourne","longitude":145.1453990001,"latitude":-37.7217139986,"suburbtown":"ELTHAM","gcc":"2gmel","classification":"Strength and Fitness"},{"sportsplayed":"fitness \/ gymnasium workouts","City":"Melbourne","longitude":145.137623,"latitude":-37.7202409987,"suburbtown":"ELTHAM","gcc":"2gmel","classification":"Strength and Fitness"},{"sportsplayed":"golf","City":"Melbourne","longitude":145.1327439996,"latitude":-37.6267259993,"suburbtown":"YARRAMBAT","gcc":"2gmel","classification":"Outdoor and Adventure Sports"},{"sportsplayed":"gymnastics","City":"Melbourne","longitude":145.1877819997,"latitude":-37.7068149991,"suburbtown":"RESEARCH","gcc":"2gmel","classification":null},{"sportsplayed":"gymnastics","City":"Melbourne","longitude":145.1660550001,"latitude":-37.6738659992,"suburbtown":"DIAMOND CREEK","gcc":"2gmel","classification":null},{"sportsplayed":"gymnastics","City":"Melbourne","longitude":145.1389210004,"latitude":-37.7174259988,"suburbtown":"ELTHAM","gcc":"2gmel","classification":null},{"sportsplayed":"hockey","City":"Melbourne","longitude":145.1239190003,"latitude":-37.6720409986,"suburbtown":"PLENTY","gcc":"2gmel","classification":"Water Sports"},{"sportsplayed":"lacrosse","City":"Melbourne","longitude":145.1405840005,"latitude":-37.7343999994,"suburbtown":"ELTHAM","gcc":"2gmel","classification":"Outdoor and Adventure Sports"},{"sportsplayed":"lawn bowls","City":"Melbourne","longitude":145.189896,"latitude":-37.6397049992,"suburbtown":"HURSTBRIDGE??","gcc":"2gmel","classification":"Outdoor and Adventure Sports"},{"sportsplayed":"lawn bowls","City":"Melbourne","longitude":145.1536859998,"latitude":-37.675389999,"suburbtown":"DIAMOND CREEK","gcc":"2gmel","classification":"Outdoor and Adventure Sports"},{"sportsplayed":"lawn bowls","City":"Melbourne","longitude":145.189896,"latitude":-37.6397049992,"suburbtown":"HURSTBRIDGE??","gcc":"2gmel","classification":"Outdoor and Adventure Sports"},{"sportsplayed":"lawn bowls","City":"Melbourne","longitude":145.1437179997,"latitude":-37.7197119987,"suburbtown":"ELTHAM","gcc":"2gmel","classification":"Outdoor and Adventure Sports"},{"sportsplayed":"netball","City":"Melbourne","longitude":145.1523710002,"latitude":-37.674444999,"suburbtown":"DIAMOND CREEK","gcc":"2gmel","classification":"Ball Sports"},{"sportsplayed":"netball","City":"Melbourne","longitude":145.1523710002,"latitude":-37.674444999,"suburbtown":"DIAMOND CREEK","gcc":"2gmel","classification":"Ball Sports"},{"sportsplayed":"netball","City":"Melbourne","longitude":145.1365689998,"latitude":-37.638141999,"suburbtown":"YARRAMBAT","gcc":"2gmel","classification":"Ball Sports"},{"sportsplayed":"netball (indoor)","City":"Melbourne","longitude":145.1660550001,"latitude":-37.6738659992,"suburbtown":"DIAMOND CREEK","gcc":"2gmel","classification":"Ball Sports"},{"sportsplayed":"netball (indoor)","City":"Melbourne","longitude":145.1082630006,"latitude":-37.6882519987,"suburbtown":"GREENSBOROUGH??","gcc":"2gmel","classification":"Ball Sports"},{"sportsplayed":"rugby union","City":"Melbourne","longitude":145.1437179997,"latitude":-37.7197119987,"suburbtown":"ELTHAM","gcc":"2gmel","classification":"Ball Sports"},{"sportsplayed":"sailing","City":"Melbourne","longitude":145.3109840002,"latitude":-37.6659619989,"suburbtown":"CHRISTMAS HILLS","gcc":"2gmel","classification":"Water Sports"},{"sportsplayed":"shooting sports","City":"Melbourne","longitude":145.1293129996,"latitude":-37.6200579992,"suburbtown":"YARRAMBAT","gcc":"2gmel","classification":"Outdoor and Adventure Sports"},{"sportsplayed":"skating","City":"Melbourne","longitude":145.1550589998,"latitude":-37.6722389988,"suburbtown":"DIAMOND CREEK","gcc":"2gmel","classification":"Outdoor and Adventure Sports"},{"sportsplayed":"skating","City":"Melbourne","longitude":145.1422850004,"latitude":-37.7180849988,"suburbtown":"ELTHAM","gcc":"2gmel","classification":"Outdoor and Adventure Sports"},{"sportsplayed":"soccer","City":"Melbourne","longitude":145.1502629999,"latitude":-37.6956309987,"suburbtown":"ELTHAM NORTH","gcc":"2gmel","classification":"Ball Sports"},{"sportsplayed":"soccer (indoor soccer \/ futsal)","City":"Melbourne","longitude":145.1082630006,"latitude":-37.6882519987,"suburbtown":"GREENSBOROUGH??","gcc":"2gmel","classification":"Ball Sports"},{"sportsplayed":"squash \/ racquetball","City":"Melbourne","longitude":145.1082630006,"latitude":-37.6882519987,"suburbtown":"GREENSBOROUGH??","gcc":"2gmel","classification":"Outdoor and Adventure Sports"},{"sportsplayed":"swimming","City":"Melbourne","longitude":145.1572120001,"latitude":-37.6720859995,"suburbtown":"DIAMOND CREEK","gcc":"2gmel","classification":"Water Sports"},{"sportsplayed":"swimming","City":"Melbourne","longitude":145.1417480004,"latitude":-37.723283999,"suburbtown":"ELTHAM","gcc":"2gmel","classification":"Water Sports"},{"sportsplayed":"table tennis","City":"Melbourne","longitude":145.1082630006,"latitude":-37.6882519987,"suburbtown":"GREENSBOROUGH??","gcc":"2gmel","classification":"Ball Sports"},{"sportsplayed":"tennis (indoor)","City":"Melbourne","longitude":145.1941799995,"latitude":-37.6365729987,"suburbtown":"HURSTBRIDGE??","gcc":"2gmel","classification":"Ball Sports"},{"sportsplayed":"tennis (outdoor)","City":"Melbourne","longitude":145.240376,"latitude":-37.6430219991,"suburbtown":"PANTON HILL??","gcc":"2gmel","classification":"Ball Sports"},{"sportsplayed":"tennis (outdoor)","City":"Melbourne","longitude":145.1492379997,"latitude":-37.6791259994,"suburbtown":"DIAMOND CREEK","gcc":"2gmel","classification":"Ball Sports"},{"sportsplayed":"tennis (outdoor)","City":"Melbourne","longitude":145.1417480004,"latitude":-37.723283999,"suburbtown":"ELTHAM","gcc":"2gmel","classification":"Ball Sports"},{"sportsplayed":"tennis (outdoor)","City":"Melbourne","longitude":145.1465829997,"latitude":-37.7130379993,"suburbtown":"ELTHAM","gcc":"2gmel","classification":"Ball Sports"},{"sportsplayed":"tennis (outdoor)","City":"Melbourne","longitude":145.2141530004,"latitude":-37.6906409994,"suburbtown":"KANGAROO GROUND","gcc":"2gmel","classification":"Ball Sports"},{"sportsplayed":"tennis (outdoor)","City":"Melbourne","longitude":145.1639669995,"latitude":-37.6772949991,"suburbtown":"DIAMOND CREEK","gcc":"2gmel","classification":"Ball Sports"},{"sportsplayed":"tennis (outdoor)","City":"Melbourne","longitude":145.1639669995,"latitude":-37.6772949991,"suburbtown":"DIAMOND CREEK","gcc":"2gmel","classification":"Ball Sports"},{"sportsplayed":"tennis (outdoor)","City":"Melbourne","longitude":145.1239190003,"latitude":-37.6720409986,"suburbtown":"PLENTY","gcc":"2gmel","classification":"Ball Sports"},{"sportsplayed":"tennis (outdoor)","City":"Melbourne","longitude":145.1239190003,"latitude":-37.6720409986,"suburbtown":"PLENTY","gcc":"2gmel","classification":"Ball Sports"},{"sportsplayed":"tennis (outdoor)","City":"Melbourne","longitude":145.1778410002,"latitude":-37.701711999,"suburbtown":"RESEARCH","gcc":"2gmel","classification":"Ball Sports"},{"sportsplayed":"tennis (outdoor)","City":"Melbourne","longitude":145.1778410002,"latitude":-37.701711999,"suburbtown":"RESEARCH","gcc":"2gmel","classification":"Ball Sports"},{"sportsplayed":"tennis (outdoor)","City":"Melbourne","longitude":145.2682300003,"latitude":-37.6029389991,"suburbtown":"ST ANDREWS","gcc":"2gmel","classification":"Ball Sports"},{"sportsplayed":"tennis (outdoor)","City":"Melbourne","longitude":145.268909,"latitude":-37.5341119993,"suburbtown":"STRATHEWEN","gcc":"2gmel","classification":"Ball Sports"},{"sportsplayed":"volleyball","City":"Melbourne","longitude":145.1082630006,"latitude":-37.6882519987,"suburbtown":"GREENSBOROUGH??","gcc":"2gmel","classification":"Ball Sports"},{"sportsplayed":"volleyball","City":"Melbourne","longitude":145.1417480004,"latitude":-37.723283999,"suburbtown":"ELTHAM","gcc":"2gmel","classification":"Ball Sports"},{"sportsplayed":"athletics","City":"Stawell","longitude":142.7760029999,"latitude":-37.0507959988,"suburbtown":"STAWELL","gcc":"2rvic","classification":"Running and Cycling"}]