[{"sportsplayed":"bmx","City":"Melbourne","longitude":145.356706,"latitude":-37.7481569989,"suburbtown":"LILYDALE","gcc":"2gmel","classification":"Outdoor and Adventure Sports"},{"sportsplayed":"fitness \/ gymnasium workouts","City":"Melbourne","longitude":145.2594670004,"latitude":-38.0053919989,"suburbtown":"KILSYTH","gcc":"2gmel","classification":"Strength and Fitness"},{"sportsplayed":"tennis (outdoor)","City":"Melbourne","longitude":145.3727810005,"latitude":-37.9125899991,"suburbtown":"SELBY","gcc":"2gmel","classification":"Ball Sports"},{"sportsplayed":"golf","City":null,"longitude":141.5868949995,"latitude":-36.0746149995,"suburbtown":"BAKER","gcc":"None","classification":"Outdoor and Adventure Sports"},{"sportsplayed":"equestrian","City":"Melbourne","longitude":144.721688,"latitude":-37.8224829993,"suburbtown":"TRUGANINA","gcc":"2gmel","classification":"Outdoor and Adventure Sports"},{"sportsplayed":"cricket","City":"Melbourne","longitude":145.0809149995,"latitude":-37.6973319987,"suburbtown":"BUNDOORA","gcc":"2gmel","classification":"Ball Sports"},{"sportsplayed":"sailing","City":"Cowes","longitude":145.2334,"latitude":-38.4490209992,"suburbtown":"COWES","gcc":"2rvic","classification":"Water Sports"},{"sportsplayed":"gymnastics","City":"Benalla","longitude":145.963047,"latitude":-36.5550879988,"suburbtown":"BENALLA","gcc":"2rvic","classification":null},{"sportsplayed":"cycling","City":"Beechworth","longitude":146.7008690003,"latitude":-36.3425769988,"suburbtown":null,"gcc":"2rvic","classification":"Running and Cycling"},{"sportsplayed":"cricket","City":"Melbourne","longitude":145.098379,"latitude":-38.0092119994,"suburbtown":"MORDIALLOC","gcc":"2gmel","classification":"Ball Sports"},{"sportsplayed":"gymnastics","City":"Melbourne","longitude":145.1147159997,"latitude":-37.989769999,"suburbtown":"BRAESIDE","gcc":"2gmel","classification":null},{"sportsplayed":"carpet bowls","City":"Boort","longitude":143.7278280001,"latitude":-36.1169999994,"suburbtown":"BOORT","gcc":"2rvic","classification":"Outdoor and Adventure Sports"},{"sportsplayed":"gymnastics","City":"Moyhu","longitude":146.3663150005,"latitude":-36.5769989994,"suburbtown":"MOYHU","gcc":"2rvic","classification":null},{"sportsplayed":"polocrosse","City":null,"longitude":147.0233800001,"latitude":-38.1127369995,"suburbtown":"WURRUK","gcc":"None","classification":"Outdoor and Adventure Sports"},{"sportsplayed":"tennis (outdoor)","City":"Maffra","longitude":146.981749,"latitude":-37.9630969994,"suburbtown":"MAFFRA","gcc":"None","classification":"Ball Sports"},{"sportsplayed":"badminton","City":"Melbourne","longitude":145.1164459997,"latitude":-37.8469499992,"suburbtown":"BURWOOD","gcc":"2gmel","classification":"Outdoor and Adventure Sports"},{"sportsplayed":"tennis (outdoor)","City":"Melbourne","longitude":145.1430219999,"latitude":-37.8463089991,"suburbtown":"BURWOOD EAST","gcc":"2gmel","classification":"Ball Sports"},{"sportsplayed":"canoeing","City":"Wodonga","longitude":146.8218809998,"latitude":-36.1110499993,"suburbtown":"WODONGA","gcc":"2rvic","classification":"Outdoor and Adventure Sports"},{"sportsplayed":"cricket","City":"Raywood","longitude":144.2041170001,"latitude":-36.5328319987,"suburbtown":"RAYWOOD","gcc":"2rvic","classification":"Ball Sports"},{"sportsplayed":"baseball","City":"Melbourne","longitude":145.1388540003,"latitude":-37.9120469993,"suburbtown":"HUNTINGDALE","gcc":"2gmel","classification":"Outdoor and Adventure Sports"},{"sportsplayed":"karate","City":"Melbourne","longitude":145.1144149999,"latitude":-37.8563989987,"suburbtown":"MT WAVERLEY","gcc":"2gmel","classification":"Outdoor and Adventure Sports"},{"sportsplayed":"squash \/ racquetball","City":"Melbourne","longitude":144.9453670004,"latitude":-37.764935999,"suburbtown":"BRUNSWICK WEST","gcc":"2gmel","classification":"Outdoor and Adventure Sports"},{"sportsplayed":"baseball","City":"Melbourne","longitude":145.1888570003,"latitude":-38.262192999,"suburbtown":"TYABB","gcc":"2gmel","classification":"Outdoor and Adventure Sports"},{"sportsplayed":"cycling","City":"Melbourne","longitude":145.1658600004,"latitude":-38.3891729994,"suburbtown":null,"gcc":"2gmel","classification":"Running and Cycling"},{"sportsplayed":"sailing","City":"Baringhup","longitude":143.9740759999,"latitude":-36.9944209988,"suburbtown":"BARINGHUP","gcc":"2rvic","classification":"Water Sports"},{"sportsplayed":"cycling","City":"Horsham","longitude":142.2059720003,"latitude":-36.7186309988,"suburbtown":"STAWELL","gcc":"2rvic","classification":"Running and Cycling"},{"sportsplayed":"bmx","City":"Shepparton","longitude":145.3971970006,"latitude":-36.3870889991,"suburbtown":"SHEPPARTON","gcc":"2rvic","classification":"Outdoor and Adventure Sports"},{"sportsplayed":"motor cycling","City":null,"longitude":143.6302689998,"latitude":-38.4426599992,"suburbtown":"BARONGAROOK","gcc":"None","classification":"Running and Cycling"},{"sportsplayed":"lawn bowls","City":"Simpson","longitude":143.2087469994,"latitude":-38.4975549995,"suburbtown":"SIMPSON??","gcc":"None","classification":"Outdoor and Adventure Sports"},{"sportsplayed":"cycling","City":null,"longitude":144.479613,"latitude":-37.4266159989,"suburbtown":null,"gcc":"None","classification":"Running and Cycling"},{"sportsplayed":"equestrian","City":"Melbourne","longitude":145.1867570003,"latitude":-37.766491999,"suburbtown":"DONVALE","gcc":"2gmel","classification":"Outdoor and Adventure Sports"},{"sportsplayed":"fitness \/ gymnasium workouts","City":"Melbourne","longitude":145.2776889999,"latitude":-37.7935819989,"suburbtown":"CROYDON","gcc":"2gmel","classification":"Strength and Fitness"},{"sportsplayed":"basketball","City":"Melbourne","longitude":144.5629049995,"latitude":-37.7672399992,"suburbtown":"EYNESBURY","gcc":"2gmel","classification":"Ball Sports"},{"sportsplayed":"volleyball","City":"Melbourne","longitude":144.5678269996,"latitude":-37.681498999,"suburbtown":"MELTON","gcc":"2gmel","classification":"Ball Sports"},{"sportsplayed":"lawn bowls","City":"Red Cliffs","longitude":142.3628990002,"latitude":-34.478387999,"suburbtown":"NANGILOC","gcc":"2rvic","classification":"Outdoor and Adventure Sports"},{"sportsplayed":"bmx","City":"Broadford","longitude":145.0568299998,"latitude":-37.1994669987,"suburbtown":"BROADFORD","gcc":"2rvic","classification":"Outdoor and Adventure Sports"},{"sportsplayed":"netball","City":"Melbourne","longitude":144.6403160004,"latitude":-37.8986009989,"suburbtown":"WERRIBEE","gcc":"2gmel","classification":"Ball Sports"},{"sportsplayed":"netball (indoor)","City":"Melbourne","longitude":144.7274999998,"latitude":-37.8719999986,"suburbtown":"HOPPERS CROSSING","gcc":"2gmel","classification":"Ball Sports"},{"sportsplayed":"netball (indoor)","City":"Melbourne","longitude":144.6590739997,"latitude":-37.9134919992,"suburbtown":"WERRIBEE","gcc":"2gmel","classification":"Ball Sports"},{"sportsplayed":"polo","City":"Melbourne","longitude":144.6749800001,"latitude":-37.9241109987,"suburbtown":"WERRIBEE","gcc":"2gmel","classification":"Ball Sports"},{"sportsplayed":"rugby league","City":"Melbourne","longitude":144.7178299998,"latitude":-37.8400369995,"suburbtown":"TRUGANINA","gcc":"2gmel","classification":"Ball Sports"},{"sportsplayed":"rugby league","City":"Melbourne","longitude":144.6093890003,"latitude":-37.8970689991,"suburbtown":"WYNDHAM VALE","gcc":"2gmel","classification":"Ball Sports"},{"sportsplayed":"cycling","City":"Maldon","longitude":144.049167,"latitude":-36.996388999,"suburbtown":null,"gcc":"None","classification":"Running and Cycling"},{"sportsplayed":"rugby union","City":"Melbourne","longitude":144.6093890003,"latitude":-37.8970689991,"suburbtown":"WYNDHAM VALE","gcc":"2gmel","classification":"Ball Sports"},{"sportsplayed":"rugby union","City":"Melbourne","longitude":144.692478,"latitude":-37.877436999,"suburbtown":"HOPPERS CROSSING","gcc":"2gmel","classification":"Ball Sports"},{"sportsplayed":"shooting sports","City":"Melbourne","longitude":144.6406030004,"latitude":-37.8983029989,"suburbtown":"WERRIBEE","gcc":"2gmel","classification":"Outdoor and Adventure Sports"},{"sportsplayed":"skating","City":"Melbourne","longitude":144.7353360001,"latitude":-37.8805559989,"suburbtown":"POINT COOK","gcc":"2gmel","classification":"Outdoor and Adventure Sports"},{"sportsplayed":"skating","City":"Little River","longitude":144.4974059995,"latitude":-37.961416999,"suburbtown":"LITTLE RIVER","gcc":"None","classification":"Outdoor and Adventure Sports"},{"sportsplayed":"skating","City":"Melbourne","longitude":144.692478,"latitude":-37.877436999,"suburbtown":"HOPPERS CROSSING","gcc":"2gmel","classification":"Outdoor and Adventure Sports"},{"sportsplayed":"skating","City":"Melbourne","longitude":144.6345720004,"latitude":-37.881809999,"suburbtown":"WERRIBEE","gcc":"2gmel","classification":"Outdoor and Adventure Sports"},{"sportsplayed":"soccer","City":"Melbourne","longitude":144.7294189997,"latitude":-37.860803999,"suburbtown":"TRUGANINA","gcc":"2gmel","classification":"Ball Sports"},{"sportsplayed":"soccer","City":"Melbourne","longitude":144.7294189997,"latitude":-37.860803999,"suburbtown":"TRUGANINA","gcc":"2gmel","classification":"Ball Sports"},{"sportsplayed":"soccer","City":"Melbourne","longitude":144.6504090001,"latitude":-37.8870599991,"suburbtown":"WERRIBEE","gcc":"2gmel","classification":"Ball Sports"},{"sportsplayed":"soccer","City":"Melbourne","longitude":144.6765720001,"latitude":-37.8608849989,"suburbtown":"HOPPERS CROSSING","gcc":"2gmel","classification":"Ball Sports"},{"sportsplayed":"soccer","City":"Melbourne","longitude":144.6765720001,"latitude":-37.8608849989,"suburbtown":"HOPPERS CROSSING","gcc":"2gmel","classification":"Ball Sports"},{"sportsplayed":"soccer","City":"Melbourne","longitude":144.752502,"latitude":-37.9093509992,"suburbtown":"POINT COOK","gcc":"2gmel","classification":"Ball Sports"},{"sportsplayed":"soccer","City":"Melbourne","longitude":144.7275290004,"latitude":-37.8940099995,"suburbtown":"POINT COOK","gcc":"2gmel","classification":"Ball Sports"},{"sportsplayed":"soccer","City":"Melbourne","longitude":144.7021569998,"latitude":-37.8926289988,"suburbtown":"WERRIBEE","gcc":"2gmel","classification":"Ball Sports"},{"sportsplayed":"soccer (indoor soccer \/ futsal)","City":"Melbourne","longitude":144.6590739997,"latitude":-37.9134919992,"suburbtown":"WERRIBEE","gcc":"2gmel","classification":"Ball Sports"},{"sportsplayed":"softball","City":"Melbourne","longitude":144.7649330001,"latitude":-37.8521359989,"suburbtown":"LAVERTON NORTH","gcc":"2gmel","classification":"Ball Sports"},{"sportsplayed":"softball","City":"Melbourne","longitude":144.6345720004,"latitude":-37.881809999,"suburbtown":"WERRIBEE","gcc":"2gmel","classification":"Ball Sports"},{"sportsplayed":"swimming","City":"Melbourne","longitude":144.6910560004,"latitude":-37.8691269987,"suburbtown":"HOPPERS CROSSING","gcc":"2gmel","classification":"Water Sports"},{"sportsplayed":"swimming","City":"Melbourne","longitude":144.7289999996,"latitude":-37.8659999994,"suburbtown":"HOPPERS CROSSING","gcc":"2gmel","classification":"Water Sports"},{"sportsplayed":"swimming","City":"Melbourne","longitude":144.6518819996,"latitude":-37.9060409995,"suburbtown":"WERRIBEE","gcc":"2gmel","classification":"Water Sports"},{"sportsplayed":"swimming","City":"Melbourne","longitude":144.683355,"latitude":-37.8821729988,"suburbtown":"HOPPERS CROSSING","gcc":"2gmel","classification":"Water Sports"},{"sportsplayed":"table tennis","City":"Melbourne","longitude":144.6403160004,"latitude":-37.8986009989,"suburbtown":"WERRIBEE","gcc":"2gmel","classification":"Ball Sports"},{"sportsplayed":"tennis (outdoor)","City":"Melbourne","longitude":144.6757169997,"latitude":-37.8710689994,"suburbtown":"HOPPERS CROSSING","gcc":"2gmel","classification":"Ball Sports"},{"sportsplayed":"tennis (outdoor)","City":"Melbourne","longitude":144.6520609998,"latitude":-37.9048149994,"suburbtown":"WERRIBEE","gcc":"2gmel","classification":"Ball Sports"},{"sportsplayed":"tennis (outdoor)","City":"Melbourne","longitude":144.6520609998,"latitude":-37.9048149994,"suburbtown":"WERRIBEE","gcc":"2gmel","classification":"Ball Sports"},{"sportsplayed":"tennis (outdoor)","City":"Melbourne","longitude":144.6504090001,"latitude":-37.8870599991,"suburbtown":"WERRIBEE","gcc":"2gmel","classification":"Ball Sports"},{"sportsplayed":"tennis (outdoor)","City":"Melbourne","longitude":144.6927729998,"latitude":-37.8694899993,"suburbtown":"HOPPERS CROSSING","gcc":"2gmel","classification":"Ball Sports"},{"sportsplayed":"tennis (outdoor)","City":"Melbourne","longitude":144.7485320004,"latitude":-37.8963119992,"suburbtown":"POINT COOK","gcc":"2gmel","classification":"Ball Sports"},{"sportsplayed":"tennis (outdoor)","City":"Little River","longitude":144.4974059995,"latitude":-37.961416999,"suburbtown":"LITTLE RIVER","gcc":"None","classification":"Ball Sports"},{"sportsplayed":"tennis (outdoor)","City":"Melbourne","longitude":144.692478,"latitude":-37.877436999,"suburbtown":"HOPPERS CROSSING","gcc":"2gmel","classification":"Ball Sports"},{"sportsplayed":"tennis (outdoor)","City":"Melbourne","longitude":144.6917649995,"latitude":-37.9733679989,"suburbtown":"WERRIBEE","gcc":"2gmel","classification":"Ball Sports"},{"sportsplayed":"tennis (outdoor)","City":"Melbourne","longitude":144.752502,"latitude":-37.9093509992,"suburbtown":"POINT COOK","gcc":"2gmel","classification":"Ball Sports"},{"sportsplayed":"tennis (outdoor)","City":"Melbourne","longitude":144.762714,"latitude":-37.8960969989,"suburbtown":"POINT COOK","gcc":"2gmel","classification":"Ball Sports"},{"sportsplayed":"tennis (outdoor)","City":"Melbourne","longitude":144.6403160004,"latitude":-37.8986009989,"suburbtown":"WERRIBEE","gcc":"2gmel","classification":"Ball Sports"},{"sportsplayed":"tennis (outdoor)","City":"Melbourne","longitude":144.7510229996,"latitude":-37.885604999,"suburbtown":"POINT COOK","gcc":"2gmel","classification":"Ball Sports"},{"sportsplayed":"tennis (outdoor)","City":"Melbourne","longitude":144.6600000004,"latitude":-37.8564999986,"suburbtown":"TARNEIT","gcc":"2gmel","classification":"Ball Sports"},{"sportsplayed":"tennis (outdoor)","City":"Melbourne","longitude":144.619546,"latitude":-37.8872439989,"suburbtown":"WYNDHAM VALE","gcc":"2gmel","classification":"Ball Sports"},{"sportsplayed":"tennis (outdoor)","City":"Melbourne","longitude":144.7265370003,"latitude":-37.8512209994,"suburbtown":"TRUGANINA","gcc":"2gmel","classification":"Ball Sports"},{"sportsplayed":"volleyball","City":"Melbourne","longitude":144.6403160004,"latitude":-37.8986009989,"suburbtown":"WERRIBEE","gcc":"2gmel","classification":"Ball Sports"},{"sportsplayed":"athletics","City":"Melbourne","longitude":145.0003510001,"latitude":-37.8172179993,"suburbtown":"RICHMOND","gcc":"2gmel","classification":"Running and Cycling"},{"sportsplayed":"athletics","City":"Melbourne","longitude":145.0023189999,"latitude":-37.784204999,"suburbtown":"CLIFTON HILL","gcc":"2gmel","classification":"Running and Cycling"},{"sportsplayed":"australian rules football","City":"Melbourne","longitude":144.982377,"latitude":-37.7875299988,"suburbtown":"FITZROY","gcc":"2gmel","classification":"Ball Sports"},{"sportsplayed":"australian rules football","City":"Melbourne","longitude":145.029131,"latitude":-37.7837789989,"suburbtown":"ALPHINGTON","gcc":"2gmel","classification":"Ball Sports"},{"sportsplayed":"australian rules football","City":"Melbourne","longitude":145.0003510001,"latitude":-37.8172179993,"suburbtown":"RICHMOND","gcc":"2gmel","classification":"Ball Sports"},{"sportsplayed":"australian rules football","City":"Melbourne","longitude":145.0204619995,"latitude":-37.8285759992,"suburbtown":"BURNLEY","gcc":"2gmel","classification":"Ball Sports"},{"sportsplayed":"australian rules football","City":"Melbourne","longitude":145.0031109997,"latitude":-37.7898729994,"suburbtown":"FAIRFIELD","gcc":"2gmel","classification":"Ball Sports"},{"sportsplayed":"australian rules football","City":"Melbourne","longitude":144.9966070002,"latitude":-37.7985799995,"suburbtown":"ABBOTSFORD","gcc":"2gmel","classification":"Ball Sports"},{"sportsplayed":"australian rules football","City":"Melbourne","longitude":144.982377,"latitude":-37.7875299988,"suburbtown":"FITZROY","gcc":"2gmel","classification":"Ball Sports"},{"sportsplayed":"basketball","City":"Melbourne","longitude":144.9890299998,"latitude":-37.8032559992,"suburbtown":"COLLINGWOOD","gcc":"2gmel","classification":"Ball Sports"},{"sportsplayed":"basketball","City":"Melbourne","longitude":144.9791569995,"latitude":-37.8009089995,"suburbtown":"FITZROY","gcc":"2gmel","classification":"Ball Sports"},{"sportsplayed":"basketball","City":"Melbourne","longitude":145.0126990005,"latitude":-37.8296899994,"suburbtown":"BURNLEY","gcc":"2gmel","classification":"Ball Sports"},{"sportsplayed":"basketball","City":"Melbourne","longitude":144.9665869999,"latitude":-37.7818179989,"suburbtown":"PRINCES HILL","gcc":"2gmel","classification":"Ball Sports"},{"sportsplayed":"bocce","City":"Melbourne","longitude":144.982377,"latitude":-37.7875299988,"suburbtown":"FITZROY","gcc":"2gmel","classification":"Ball Sports"},{"sportsplayed":"bocce","City":"Melbourne","longitude":144.9670579995,"latitude":-37.7791969991,"suburbtown":"PRINCESS HILL","gcc":"2gmel","classification":"Ball Sports"},{"sportsplayed":"boxing","City":"Melbourne","longitude":144.9744489999,"latitude":-37.8054669989,"suburbtown":"FITZROY","gcc":"2gmel","classification":"Strength and Fitness"},{"sportsplayed":"boxing","City":"Melbourne","longitude":145.0015249998,"latitude":-37.8183799992,"suburbtown":"RICHMOND","gcc":"2gmel","classification":"Strength and Fitness"},{"sportsplayed":"boxing","City":"Melbourne","longitude":144.9881639997,"latitude":-37.8019559993,"suburbtown":"COLLINGWOOD","gcc":"2gmel","classification":"Strength and Fitness"},{"sportsplayed":"canoe polo","City":"Melbourne","longitude":145.0023810002,"latitude":-37.8176879989,"suburbtown":"RICHMOND","gcc":"2gmel","classification":"Ball Sports"},{"sportsplayed":"canoeing","City":"Melbourne","longitude":145.0187589997,"latitude":-37.7856389988,"suburbtown":"FAIRFIELD","gcc":"2gmel","classification":"Outdoor and Adventure Sports"},{"sportsplayed":"canoeing","City":"Melbourne","longitude":145.0042219995,"latitude":-37.7843699988,"suburbtown":"FAIRFIELD","gcc":"2gmel","classification":"Outdoor and Adventure Sports"},{"sportsplayed":"cricket","City":"Melbourne","longitude":145.0011340002,"latitude":-37.8302179994,"suburbtown":"CREMORNE","gcc":"2gmel","classification":"Ball Sports"},{"sportsplayed":"cricket","City":"Melbourne","longitude":144.982377,"latitude":-37.7875299988,"suburbtown":"FITZROY","gcc":"2gmel","classification":"Ball Sports"},{"sportsplayed":"cricket","City":"Melbourne","longitude":145.029131,"latitude":-37.7837789989,"suburbtown":"ALPHINGTON","gcc":"2gmel","classification":"Ball Sports"},{"sportsplayed":"cricket","City":"Melbourne","longitude":145.0141450004,"latitude":-37.8261029992,"suburbtown":"BURNLEY","gcc":"2gmel","classification":"Ball Sports"},{"sportsplayed":"fitness \/ gymnasium workouts","City":"Melbourne","longitude":145.0197980005,"latitude":-37.827229999,"suburbtown":"RICHMOND","gcc":"2gmel","classification":"Strength and Fitness"},{"sportsplayed":"cricket","City":"Melbourne","longitude":145.0003510001,"latitude":-37.8172179993,"suburbtown":"RICHMOND","gcc":"2gmel","classification":"Ball Sports"},{"sportsplayed":"cricket","City":"Melbourne","longitude":145.0077180002,"latitude":-37.7956429992,"suburbtown":"ABBOTSFORD","gcc":"2gmel","classification":"Ball Sports"},{"sportsplayed":"cricket","City":"Melbourne","longitude":145.0099539995,"latitude":-37.7857379993,"suburbtown":"FAIRFIELD","gcc":"2gmel","classification":"Ball Sports"},{"sportsplayed":"cricket","City":"Melbourne","longitude":145.0077180002,"latitude":-37.7956429992,"suburbtown":"FAIRFIELD","gcc":"2gmel","classification":"Ball Sports"},{"sportsplayed":"cricket","City":"Melbourne","longitude":145.0204619995,"latitude":-37.8285759992,"suburbtown":"BURNLEY","gcc":"2gmel","classification":"Ball Sports"},{"sportsplayed":"cricket","City":"Melbourne","longitude":145.0204619995,"latitude":-37.8285759992,"suburbtown":"BURNLEY","gcc":"2gmel","classification":"Ball Sports"},{"sportsplayed":"cricket","City":"Melbourne","longitude":145.0085750002,"latitude":-37.7999749989,"suburbtown":"FAIRFIELD","gcc":"2gmel","classification":"Ball Sports"},{"sportsplayed":"cricket","City":"Melbourne","longitude":145.0031109997,"latitude":-37.7898729994,"suburbtown":"FAIRFIELD","gcc":"2gmel","classification":"Ball Sports"},{"sportsplayed":"cricket","City":"Melbourne","longitude":145.0077180002,"latitude":-37.7956429992,"suburbtown":"ABBOTSFORD","gcc":"2gmel","classification":"Ball Sports"},{"sportsplayed":"cricket","City":"Melbourne","longitude":145.0085750002,"latitude":-37.7999749989,"suburbtown":"FAIRFIELD","gcc":"2gmel","classification":"Ball Sports"},{"sportsplayed":"cricket","City":"Melbourne","longitude":144.982377,"latitude":-37.7875299988,"suburbtown":"FITZROY","gcc":"2gmel","classification":"Ball Sports"},{"sportsplayed":"cricket","City":"Melbourne","longitude":145.0077180002,"latitude":-37.7956429992,"suburbtown":"FAIRFIELD","gcc":"2gmel","classification":"Ball Sports"},{"sportsplayed":"cricket","City":"Melbourne","longitude":145.0077180002,"latitude":-37.7956429992,"suburbtown":"ABBOTSFORD","gcc":"2gmel","classification":"Ball Sports"},{"sportsplayed":"cycling","City":"Melbourne","longitude":145.0101199999,"latitude":-37.8065289989,"suburbtown":"KEW","gcc":"2gmel","classification":"Running and Cycling"},{"sportsplayed":"cycling","City":"Melbourne","longitude":145.0151300001,"latitude":-37.793699999,"suburbtown":"RICHMOND","gcc":"2gmel","classification":"Running and Cycling"},{"sportsplayed":"fitness \/ gymnasium workouts","City":"Melbourne","longitude":144.9912390001,"latitude":-37.8174789989,"suburbtown":"RICHMOND","gcc":"2gmel","classification":"Strength and Fitness"},{"sportsplayed":"fitness \/ gymnasium workouts","City":"Melbourne","longitude":144.990736,"latitude":-37.826114999,"suburbtown":"RICHMOND","gcc":"2gmel","classification":"Strength and Fitness"},{"sportsplayed":"fitness \/ gymnasium workouts","City":"Melbourne","longitude":145.0313940002,"latitude":-37.7809929987,"suburbtown":"ALPHINGTON","gcc":"2gmel","classification":"Strength and Fitness"},{"sportsplayed":"fitness \/ gymnasium workouts","City":"Melbourne","longitude":145.0038179999,"latitude":-37.8203979986,"suburbtown":"RICHMOND","gcc":"2gmel","classification":"Strength and Fitness"},{"sportsplayed":"fitness \/ gymnasium workouts","City":"Melbourne","longitude":144.9981559995,"latitude":-37.8249219994,"suburbtown":"RICHMOND","gcc":"2gmel","classification":"Strength and Fitness"},{"sportsplayed":"fitness \/ gymnasium workouts","City":"Melbourne","longitude":145.0075490002,"latitude":-37.8115109992,"suburbtown":"RICHMOND","gcc":"2gmel","classification":"Strength and Fitness"},{"sportsplayed":"fitness \/ gymnasium workouts","City":"Melbourne","longitude":144.9928629996,"latitude":-37.8028699991,"suburbtown":"COLLINGWOOD","gcc":"2gmel","classification":"Strength and Fitness"},{"sportsplayed":"fitness \/ gymnasium workouts","City":"Melbourne","longitude":144.9943510004,"latitude":-37.7879959989,"suburbtown":"CLIFTON HILL","gcc":"2gmel","classification":"Strength and Fitness"},{"sportsplayed":"fitness \/ gymnasium workouts","City":"Melbourne","longitude":145.0095799995,"latitude":-37.8181619992,"suburbtown":"RICHMOND","gcc":"2gmel","classification":"Strength and Fitness"},{"sportsplayed":"fitness \/ gymnasium workouts","City":"Melbourne","longitude":144.9775299998,"latitude":-37.7959399987,"suburbtown":"FITZROY","gcc":"2gmel","classification":"Strength and Fitness"},{"sportsplayed":"fitness \/ gymnasium workouts","City":"Melbourne","longitude":144.9776079996,"latitude":-37.7959639991,"suburbtown":"FITZROY","gcc":"2gmel","classification":"Strength and Fitness"},{"sportsplayed":"fitness \/ gymnasium workouts","City":"Melbourne","longitude":144.9850220004,"latitude":-37.7820899987,"suburbtown":"FITZROY NORTH","gcc":"2gmel","classification":"Strength and Fitness"},{"sportsplayed":"fitness \/ gymnasium workouts","City":"Melbourne","longitude":144.9749519998,"latitude":-37.7955839987,"suburbtown":"CARLTON","gcc":"2gmel","classification":"Strength and Fitness"},{"sportsplayed":"fitness \/ gymnasium workouts","City":"Melbourne","longitude":144.9751079996,"latitude":-37.7956209987,"suburbtown":"CARLTON","gcc":"2gmel","classification":"Strength and Fitness"},{"sportsplayed":"fitness \/ gymnasium workouts","City":"Melbourne","longitude":144.9792150002,"latitude":-37.7980899995,"suburbtown":"FITZROY","gcc":"2gmel","classification":"Strength and Fitness"},{"sportsplayed":"fitness \/ gymnasium workouts","City":"Melbourne","longitude":144.9964000003,"latitude":-37.8293699987,"suburbtown":"RICHMOND","gcc":"2gmel","classification":"Strength and Fitness"},{"sportsplayed":"fitness \/ gymnasium workouts","City":"Melbourne","longitude":145.0024580004,"latitude":-37.8203349992,"suburbtown":"RICHMOND","gcc":"2gmel","classification":"Strength and Fitness"},{"sportsplayed":"fitness \/ gymnasium workouts","City":"Melbourne","longitude":144.9945479999,"latitude":-37.8099369994,"suburbtown":"RICHMOND","gcc":"2gmel","classification":"Strength and Fitness"},{"sportsplayed":"fitness \/ gymnasium workouts","City":"Melbourne","longitude":144.9762769997,"latitude":-37.7913509991,"suburbtown":"FITZROY NORTH","gcc":"2gmel","classification":"Strength and Fitness"},{"sportsplayed":"fitness \/ gymnasium workouts","City":"Melbourne","longitude":145.0251090001,"latitude":-37.7790089989,"suburbtown":"FAIRFIELD","gcc":"2gmel","classification":"Strength and Fitness"},{"sportsplayed":"fitness \/ gymnasium workouts","City":"Melbourne","longitude":144.9888440001,"latitude":-37.8246289989,"suburbtown":"RICHMOND","gcc":"2gmel","classification":"Strength and Fitness"},{"sportsplayed":"fitness \/ gymnasium workouts","City":"Melbourne","longitude":144.9775920004,"latitude":-37.8022019987,"suburbtown":"FITZROY","gcc":"2gmel","classification":"Strength and Fitness"},{"sportsplayed":"fitness \/ gymnasium workouts","City":"Melbourne","longitude":144.9808999997,"latitude":-37.7938999988,"suburbtown":"FITZROY","gcc":"2gmel","classification":"Strength and Fitness"},{"sportsplayed":"fitness \/ gymnasium workouts","City":"Melbourne","longitude":145.1198140003,"latitude":-37.9733089991,"suburbtown":"FITZROY","gcc":"2gmel","classification":"Strength and Fitness"},{"sportsplayed":"fitness \/ gymnasium workouts","City":"Melbourne","longitude":144.9825249999,"latitude":-37.7845329994,"suburbtown":"FITZROY NORTH","gcc":"2gmel","classification":"Strength and Fitness"},{"sportsplayed":"fitness \/ gymnasium workouts","City":"Melbourne","longitude":144.9825249999,"latitude":-37.7845329994,"suburbtown":"FITZROY","gcc":"2gmel","classification":"Strength and Fitness"},{"sportsplayed":"fitness \/ gymnasium workouts","City":"Melbourne","longitude":144.9759689994,"latitude":-37.798069999,"suburbtown":"FITZROY","gcc":"2gmel","classification":"Strength and Fitness"},{"sportsplayed":"fitness \/ gymnasium workouts","City":"Melbourne","longitude":144.9759689994,"latitude":-37.798069999,"suburbtown":"FITZROY","gcc":"2gmel","classification":"Strength and Fitness"},{"sportsplayed":"fitness \/ gymnasium workouts","City":"Melbourne","longitude":144.9897940006,"latitude":-37.7894969992,"suburbtown":"CLIFTON HILL","gcc":"2gmel","classification":"Strength and Fitness"},{"sportsplayed":"fitness \/ gymnasium workouts","City":"Melbourne","longitude":144.9670679996,"latitude":-37.8099239987,"suburbtown":"RICHMOND","gcc":"2gmel","classification":"Strength and Fitness"},{"sportsplayed":"fitness \/ gymnasium workouts","City":"Melbourne","longitude":144.9744489999,"latitude":-37.8054669989,"suburbtown":"FITZROY","gcc":"2gmel","classification":"Strength and Fitness"},{"sportsplayed":"fitness \/ gymnasium workouts","City":"Melbourne","longitude":144.9759689994,"latitude":-37.798069999,"suburbtown":"FITZROY","gcc":"2gmel","classification":"Strength and Fitness"},{"sportsplayed":"fitness \/ gymnasium workouts","City":"Melbourne","longitude":144.9926929999,"latitude":-37.8237729994,"suburbtown":"RICHMOND","gcc":"2gmel","classification":"Strength and Fitness"},{"sportsplayed":"fitness \/ gymnasium workouts","City":"Melbourne","longitude":144.9914549995,"latitude":-37.8175269992,"suburbtown":"RICHMOND","gcc":"2gmel","classification":"Strength and Fitness"},{"sportsplayed":"fitness \/ gymnasium workouts","City":"Melbourne","longitude":144.9782099999,"latitude":-37.7933239991,"suburbtown":"FITZROY","gcc":"2gmel","classification":"Strength and Fitness"},{"sportsplayed":"fitness \/ gymnasium workouts","City":"Melbourne","longitude":144.9965910004,"latitude":-37.8343249989,"suburbtown":"RICHMOND","gcc":"2gmel","classification":"Strength and Fitness"},{"sportsplayed":"fitness \/ gymnasium workouts","City":"Melbourne","longitude":145.0015249998,"latitude":-37.8183799992,"suburbtown":"RICHMOND","gcc":"2gmel","classification":"Strength and Fitness"},{"sportsplayed":"fitness \/ gymnasium workouts","City":"Melbourne","longitude":145.0023810002,"latitude":-37.8176879989,"suburbtown":"RICHMOND","gcc":"2gmel","classification":"Strength and Fitness"},{"sportsplayed":"fitness \/ gymnasium workouts","City":"Melbourne","longitude":145.0003510001,"latitude":-37.8172179993,"suburbtown":"RICHMOND","gcc":"2gmel","classification":"Strength and Fitness"},{"sportsplayed":"fitness \/ gymnasium workouts","City":"Melbourne","longitude":144.9774009998,"latitude":-37.8045739988,"suburbtown":"FITZROY","gcc":"2gmel","classification":"Strength and Fitness"},{"sportsplayed":"fitness \/ gymnasium workouts","City":"Melbourne","longitude":145.0123960002,"latitude":-37.8181599988,"suburbtown":"RICHMOND","gcc":"2gmel","classification":"Strength and Fitness"},{"sportsplayed":"fitness \/ gymnasium workouts","City":"Melbourne","longitude":144.9945479999,"latitude":-37.8099369994,"suburbtown":"RICHMOND","gcc":"2gmel","classification":"Strength and Fitness"},{"sportsplayed":"fitness \/ gymnasium workouts","City":"Melbourne","longitude":145.0040500006,"latitude":-37.8192889989,"suburbtown":"RICHMOND","gcc":"2gmel","classification":"Strength and Fitness"},{"sportsplayed":"fitness \/ gymnasium workouts","City":"Melbourne","longitude":144.9881639997,"latitude":-37.8019559993,"suburbtown":"COLLINGWOOD","gcc":"2gmel","classification":"Strength and Fitness"},{"sportsplayed":"fitness \/ gymnasium workouts","City":"Melbourne","longitude":144.9780000001,"latitude":-37.7822469987,"suburbtown":"FITZROY NORTH","gcc":"2gmel","classification":"Strength and Fitness"},{"sportsplayed":"fitness \/ gymnasium workouts","City":"Melbourne","longitude":144.9759689994,"latitude":-37.798069999,"suburbtown":"FITZROY","gcc":"2gmel","classification":"Strength and Fitness"},{"sportsplayed":"fitness \/ gymnasium workouts","City":"Melbourne","longitude":144.996172,"latitude":-37.8254889987,"suburbtown":"RICHMOND","gcc":"2gmel","classification":"Strength and Fitness"},{"sportsplayed":"fitness \/ gymnasium workouts","City":"Melbourne","longitude":144.9797989998,"latitude":-37.7955719995,"suburbtown":"FITZROY","gcc":"2gmel","classification":"Strength and Fitness"},{"sportsplayed":"fitness \/ gymnasium workouts","City":"Melbourne","longitude":144.9842929997,"latitude":-37.7976119992,"suburbtown":"FITZROY","gcc":"2gmel","classification":"Strength and Fitness"},{"sportsplayed":"fitness \/ gymnasium workouts","City":"Melbourne","longitude":144.9842929997,"latitude":-37.7976119992,"suburbtown":"FITZROY","gcc":"2gmel","classification":"Strength and Fitness"},{"sportsplayed":"fitness \/ gymnasium workouts","City":"Melbourne","longitude":145.0075920004,"latitude":-37.8192009992,"suburbtown":"RICHMOND","gcc":"2gmel","classification":"Strength and Fitness"},{"sportsplayed":"gaelic football","City":"Melbourne","longitude":145.0085750002,"latitude":-37.7999749989,"suburbtown":"FAIRFIELD","gcc":"2gmel","classification":"Ball Sports"},{"sportsplayed":"golf","City":"Melbourne","longitude":145.0204619995,"latitude":-37.8285759992,"suburbtown":"BURNLEY","gcc":"2gmel","classification":"Outdoor and Adventure Sports"},{"sportsplayed":"golf","City":"Melbourne","longitude":145.0341959997,"latitude":-37.7863669992,"suburbtown":"FAIRFIELD","gcc":"2gmel","classification":"Outdoor and Adventure Sports"},{"sportsplayed":"golf","City":"Melbourne","longitude":145.0077180002,"latitude":-37.7956429992,"suburbtown":"ABBOTSFORD","gcc":"2gmel","classification":"Outdoor and Adventure Sports"},{"sportsplayed":"lawn bowls","City":"Melbourne","longitude":145.029131,"latitude":-37.7837789989,"suburbtown":"ALPHINGTON","gcc":"2gmel","classification":"Outdoor and Adventure Sports"},{"sportsplayed":"lawn bowls","City":"Melbourne","longitude":144.982377,"latitude":-37.7875299988,"suburbtown":"FITZROY","gcc":"2gmel","classification":"Outdoor and Adventure Sports"},{"sportsplayed":"lawn bowls","City":"Melbourne","longitude":145.0003510001,"latitude":-37.8172179993,"suburbtown":"RICHMOND","gcc":"2gmel","classification":"Outdoor and Adventure Sports"},{"sportsplayed":"martial arts","City":"Melbourne","longitude":144.9759689994,"latitude":-37.798069999,"suburbtown":"FITZROY","gcc":"2gmel","classification":"Ball Sports"},{"sportsplayed":"martial arts","City":"Melbourne","longitude":144.9825869994,"latitude":-37.8087269988,"suburbtown":"COLLINGWOOD","gcc":"2gmel","classification":"Ball Sports"},{"sportsplayed":"martial arts","City":"Melbourne","longitude":144.9825869994,"latitude":-37.8087269988,"suburbtown":"COLLINGWOOD","gcc":"2gmel","classification":"Ball Sports"},{"sportsplayed":"martial arts","City":"Melbourne","longitude":144.9945479999,"latitude":-37.8099369994,"suburbtown":"RICHMOND","gcc":"2gmel","classification":"Ball Sports"},{"sportsplayed":"martial arts","City":"Melbourne","longitude":144.9837149995,"latitude":-37.7979679988,"suburbtown":"FITZROY","gcc":"2gmel","classification":"Ball Sports"},{"sportsplayed":"martial arts","City":"Melbourne","longitude":145.0023189999,"latitude":-37.784204999,"suburbtown":"CLIFTON HILL","gcc":"2gmel","classification":"Ball Sports"},{"sportsplayed":"martial arts","City":"Melbourne","longitude":144.9815539995,"latitude":-37.8077079989,"suburbtown":"FITZROY","gcc":"2gmel","classification":"Ball Sports"},{"sportsplayed":"martial arts","City":"Melbourne","longitude":144.9888440001,"latitude":-37.8246289989,"suburbtown":"RICHMOND","gcc":"2gmel","classification":"Ball Sports"},{"sportsplayed":"martial arts","City":"Melbourne","longitude":144.9923419999,"latitude":-37.8057069987,"suburbtown":"ABBOTSFORD","gcc":"2gmel","classification":"Ball Sports"},{"sportsplayed":"netball","City":"Melbourne","longitude":144.9943510004,"latitude":-37.7879959989,"suburbtown":"CLIFTON HILL","gcc":"2gmel","classification":"Ball Sports"},{"sportsplayed":"netball","City":"Melbourne","longitude":145.0126990005,"latitude":-37.8296899994,"suburbtown":"BURNLEY","gcc":"2gmel","classification":"Ball Sports"},{"sportsplayed":"netball","City":"Melbourne","longitude":145.0003510001,"latitude":-37.8172179993,"suburbtown":"RICHMOND","gcc":"2gmel","classification":"Ball Sports"},{"sportsplayed":"netball","City":"Melbourne","longitude":145.0099560002,"latitude":-37.8273099987,"suburbtown":"BURNLEY","gcc":"2gmel","classification":"Ball Sports"},{"sportsplayed":"skating","City":"Melbourne","longitude":144.9830240004,"latitude":-37.7866149994,"suburbtown":"FITZROY NORTH","gcc":"2gmel","classification":"Outdoor and Adventure Sports"},{"sportsplayed":"skating","City":"Melbourne","longitude":145.0041880003,"latitude":-37.7906429986,"suburbtown":"FAIRFIELD","gcc":"2gmel","classification":"Outdoor and Adventure Sports"},{"sportsplayed":"soccer","City":"Melbourne","longitude":145.0011340002,"latitude":-37.8302179994,"suburbtown":"CREMORNE","gcc":"2gmel","classification":"Ball Sports"},{"sportsplayed":"soccer","City":"Melbourne","longitude":145.029131,"latitude":-37.7837789989,"suburbtown":"ALPHINGTON","gcc":"2gmel","classification":"Ball Sports"},{"sportsplayed":"soccer","City":"Melbourne","longitude":144.9790670005,"latitude":-37.8033149989,"suburbtown":"FITZROY","gcc":"2gmel","classification":"Ball Sports"},{"sportsplayed":"soccer","City":"Melbourne","longitude":145.0204619995,"latitude":-37.8285759992,"suburbtown":"BURNLEY","gcc":"2gmel","classification":"Ball Sports"},{"sportsplayed":"soccer","City":"Melbourne","longitude":145.0141450004,"latitude":-37.8261029992,"suburbtown":"BURNLEY","gcc":"2gmel","classification":"Ball Sports"},{"sportsplayed":"soccer","City":"Melbourne","longitude":144.9967290002,"latitude":-37.7863849989,"suburbtown":"CLIFTON HILL","gcc":"2gmel","classification":"Ball Sports"},{"sportsplayed":"soccer","City":"Melbourne","longitude":145.0099539995,"latitude":-37.7857379993,"suburbtown":"FAIRFIELD","gcc":"2gmel","classification":"Ball Sports"},{"sportsplayed":"soccer","City":"Melbourne","longitude":145.0077180002,"latitude":-37.7956429992,"suburbtown":"FAIRFIELD","gcc":"2gmel","classification":"Ball Sports"},{"sportsplayed":"soccer","City":"Melbourne","longitude":145.0204619995,"latitude":-37.8285759992,"suburbtown":"BURNLEY","gcc":"2gmel","classification":"Ball Sports"},{"sportsplayed":"soccer","City":"Melbourne","longitude":145.0023189999,"latitude":-37.784204999,"suburbtown":"CLIFTON HILL","gcc":"2gmel","classification":"Ball Sports"},{"sportsplayed":"soccer","City":"Melbourne","longitude":145.0085750002,"latitude":-37.7999749989,"suburbtown":"FAIRFIELD","gcc":"2gmel","classification":"Ball Sports"},{"sportsplayed":"soccer","City":"Melbourne","longitude":145.0031109997,"latitude":-37.7898729994,"suburbtown":"FAIRFIELD","gcc":"2gmel","classification":"Ball Sports"},{"sportsplayed":"soccer","City":"Melbourne","longitude":145.0031109997,"latitude":-37.7898729994,"suburbtown":"FAIRFIELD","gcc":"2gmel","classification":"Ball Sports"},{"sportsplayed":"soccer (indoor soccer \/ futsal)","City":"Melbourne","longitude":144.9890299998,"latitude":-37.8032559992,"suburbtown":"COLLINGWOOD","gcc":"2gmel","classification":"Ball Sports"},{"sportsplayed":"soccer (indoor soccer \/ futsal)","City":"Melbourne","longitude":144.9665869999,"latitude":-37.7818179989,"suburbtown":"PRINCES HILL","gcc":"2gmel","classification":"Ball Sports"},{"sportsplayed":"soccer (indoor soccer \/ futsal)","City":"Melbourne","longitude":144.962781,"latitude":-37.7809919995,"suburbtown":"PRINCES HILL","gcc":"2gmel","classification":"Ball Sports"},{"sportsplayed":"squash \/ racquetball","City":"Melbourne","longitude":144.9759689994,"latitude":-37.798069999,"suburbtown":"FITZROY","gcc":"2gmel","classification":"Outdoor and Adventure Sports"},{"sportsplayed":"swimming","City":"Melbourne","longitude":144.9943510004,"latitude":-37.7879959989,"suburbtown":"CLIFTON HILL","gcc":"2gmel","classification":"Water Sports"},{"sportsplayed":"swimming","City":"Melbourne","longitude":144.9808999997,"latitude":-37.7938999988,"suburbtown":"FITZROY","gcc":"2gmel","classification":"Water Sports"},{"sportsplayed":"swimming","City":"Melbourne","longitude":145.0003510001,"latitude":-37.8172179993,"suburbtown":"RICHMOND","gcc":"2gmel","classification":"Water Sports"},{"sportsplayed":"swimming","City":"Melbourne","longitude":145.0023810002,"latitude":-37.8176879989,"suburbtown":"RICHMOND","gcc":"2gmel","classification":"Water Sports"},{"sportsplayed":"tennis (indoor)","City":"Melbourne","longitude":144.9903819994,"latitude":-37.8184729989,"suburbtown":"RICHMOND","gcc":"2gmel","classification":"Ball Sports"},{"sportsplayed":"tennis (outdoor)","City":"Melbourne","longitude":144.982377,"latitude":-37.7875299988,"suburbtown":"FITZROY","gcc":"2gmel","classification":"Ball Sports"},{"sportsplayed":"tennis (outdoor)","City":"Melbourne","longitude":144.9943510004,"latitude":-37.7879959989,"suburbtown":"CLIFTON HILL","gcc":"2gmel","classification":"Ball Sports"},{"sportsplayed":"tennis (outdoor)","City":"Melbourne","longitude":145.0003510001,"latitude":-37.8172179993,"suburbtown":"RICHMOND","gcc":"2gmel","classification":"Ball Sports"},{"sportsplayed":"tennis (outdoor)","City":"Melbourne","longitude":145.0099560002,"latitude":-37.8273099987,"suburbtown":"BURNLEY","gcc":"2gmel","classification":"Ball Sports"},{"sportsplayed":"underwater hockey","City":"Melbourne","longitude":145.0023810002,"latitude":-37.8176879989,"suburbtown":"RICHMOND","gcc":"2gmel","classification":"Water Sports"},{"sportsplayed":"volleyball","City":"Melbourne","longitude":144.9890299998,"latitude":-37.8032559992,"suburbtown":"COLLINGWOOD","gcc":"2gmel","classification":"Ball Sports"},{"sportsplayed":"cricket","City":"Melbourne","longitude":145.3605129999,"latitude":-37.744798999,"suburbtown":"LILYDALE","gcc":"2gmel","classification":"Ball Sports"},{"sportsplayed":"archery","City":"Melbourne","longitude":145.307647,"latitude":-37.9052789988,"suburbtown":"UPPER FERNTREE GULLY","gcc":"2gmel","classification":"Outdoor and Adventure Sports"},{"sportsplayed":"athletics","City":"Melbourne","longitude":145.3862349996,"latitude":-37.7734509995,"suburbtown":"MOUNT EVELYN","gcc":"2gmel","classification":"Running and Cycling"},{"sportsplayed":"australian rules football","City":"Melbourne","longitude":145.3448600003,"latitude":-37.9157399994,"suburbtown":"BELGRAVE","gcc":"2gmel","classification":"Ball Sports"},{"sportsplayed":"australian rules football","City":"Melbourne","longitude":145.3559469999,"latitude":-37.9315359992,"suburbtown":"BELGRAVE SOUTH","gcc":"2gmel","classification":"Ball Sports"},{"sportsplayed":"australian rules football","City":"Melbourne","longitude":145.3183090005,"latitude":-37.7845479992,"suburbtown":"MOOROOLBARK","gcc":"2gmel","classification":"Ball Sports"},{"sportsplayed":"australian rules football","City":"Melbourne","longitude":145.5396579996,"latitude":-37.6687859987,"suburbtown":"HEALESVILLE","gcc":"2gmel","classification":"Ball Sports"},{"sportsplayed":"australian rules football","City":"Melbourne","longitude":145.3802139995,"latitude":-37.7294849988,"suburbtown":"COLDSTREAM","gcc":"2gmel","classification":"Ball Sports"},{"sportsplayed":"australian rules football","City":"Melbourne","longitude":145.3827590003,"latitude":-37.7344189991,"suburbtown":"COLDSTREAM","gcc":"2gmel","classification":"Ball Sports"},{"sportsplayed":"australian rules football","City":"Melbourne","longitude":145.3790509995,"latitude":-37.8166369993,"suburbtown":"KALORAMA","gcc":"2gmel","classification":"Ball Sports"},{"sportsplayed":"australian rules football","City":"Melbourne","longitude":145.3103409996,"latitude":-37.7931839993,"suburbtown":"KILSYTH","gcc":"2gmel","classification":"Ball Sports"},{"sportsplayed":"australian rules football","City":"Melbourne","longitude":145.3095170006,"latitude":-37.8038499987,"suburbtown":"KILSYTH","gcc":"2gmel","classification":"Ball Sports"},{"sportsplayed":"australian rules football","City":"Melbourne","longitude":145.3097890004,"latitude":-37.752024999,"suburbtown":"CHIRNSIDE PARK","gcc":"2gmel","classification":"Ball Sports"},{"sportsplayed":"australian rules football","City":"Melbourne","longitude":145.3491900001,"latitude":-37.7555079987,"suburbtown":"LILYDALE","gcc":"2gmel","classification":"Ball Sports"},{"sportsplayed":"australian rules football","City":"Melbourne","longitude":145.4104210003,"latitude":-37.8746259992,"suburbtown":"MONBULK","gcc":"2gmel","classification":"Ball Sports"},{"sportsplayed":"australian rules football","City":"Melbourne","longitude":145.3443019994,"latitude":-37.8128359993,"suburbtown":"MONTROSE","gcc":"2gmel","classification":"Ball Sports"},{"sportsplayed":"australian rules football","City":"Melbourne","longitude":145.3257459995,"latitude":-37.792790999,"suburbtown":"MOOROOLBARK","gcc":"2gmel","classification":"Ball Sports"},{"sportsplayed":"australian rules football","City":"Melbourne","longitude":145.3822520002,"latitude":-37.7955239993,"suburbtown":"MOUNT EVELYN","gcc":"2gmel","classification":"Ball Sports"},{"sportsplayed":"australian rules football","City":"Melbourne","longitude":145.3605129999,"latitude":-37.744798999,"suburbtown":"LILYDALE","gcc":"2gmel","classification":"Ball Sports"},{"sportsplayed":"australian rules football","City":"Melbourne","longitude":145.3616329996,"latitude":-37.9635269993,"suburbtown":"NARRE WARREN EAST","gcc":"2gmel","classification":"Ball Sports"},{"sportsplayed":"australian rules football","City":"Melbourne","longitude":145.3697560004,"latitude":-37.8535529988,"suburbtown":"OLINDA","gcc":"2gmel","classification":"Ball Sports"},{"sportsplayed":"australian rules football","City":"Melbourne","longitude":145.3192589998,"latitude":-37.8134849992,"suburbtown":"KILSYTH","gcc":"2gmel","classification":"Ball Sports"},{"sportsplayed":"australian rules football","City":"Melbourne","longitude":145.7477040004,"latitude":-37.8644299989,"suburbtown":"POWELLTOWN","gcc":"2gmel","classification":"Ball Sports"},{"sportsplayed":"australian rules football","City":"Melbourne","longitude":145.523121,"latitude":-37.6537419987,"suburbtown":"HEALESVILLE","gcc":"2gmel","classification":"Ball Sports"},{"sportsplayed":"australian rules football","City":"Melbourne","longitude":145.4618730004,"latitude":-37.7801409989,"suburbtown":"SEVILLE","gcc":"2gmel","classification":"Ball Sports"},{"sportsplayed":"australian rules football","City":"Melbourne","longitude":145.428321,"latitude":-37.8307269988,"suburbtown":"SILVAN","gcc":"2gmel","classification":"Ball Sports"},{"sportsplayed":"australian rules football","City":"Melbourne","longitude":145.3369710004,"latitude":-37.9030999992,"suburbtown":"UPWEY","gcc":"2gmel","classification":"Ball Sports"},{"sportsplayed":"australian rules football","City":"Melbourne","longitude":145.4585329999,"latitude":-37.8153089991,"suburbtown":"WANDIN EAST","gcc":"2gmel","classification":"Ball Sports"},{"sportsplayed":"australian rules football","City":"Melbourne","longitude":145.4302980001,"latitude":-37.7824699987,"suburbtown":"WANDIN NORTH","gcc":"2gmel","classification":"Ball Sports"},{"sportsplayed":"cycling","City":"Warrnambool","longitude":142.4647159996,"latitude":-38.3982329992,"suburbtown":null,"gcc":"2rvic","classification":"Running and Cycling"},{"sportsplayed":"australian rules football","City":"Melbourne","longitude":145.6951139996,"latitude":-37.7515019987,"suburbtown":"WARBURTON","gcc":"2gmel","classification":"Ball Sports"},{"sportsplayed":"australian rules football","City":"Melbourne","longitude":145.6482589995,"latitude":-37.772281999,"suburbtown":"WESBURN","gcc":"2gmel","classification":"Ball Sports"},{"sportsplayed":"australian rules football","City":"Melbourne","longitude":145.5707480004,"latitude":-37.7882079988,"suburbtown":"LAUCHING PLACE","gcc":"2gmel","classification":"Ball Sports"},{"sportsplayed":"australian rules football","City":"Melbourne","longitude":145.5327399996,"latitude":-37.7833709992,"suburbtown":"WOORI YALLOCK","gcc":"2gmel","classification":"Ball Sports"},{"sportsplayed":"australian rules football","City":"Melbourne","longitude":145.3825609996,"latitude":-37.660306999,"suburbtown":"YARRA GLEN","gcc":"2gmel","classification":"Ball Sports"},{"sportsplayed":"australian rules football","City":"Melbourne","longitude":145.6120060004,"latitude":-37.7804689989,"suburbtown":"YARRA JUNCTION","gcc":"2gmel","classification":"Ball Sports"},{"sportsplayed":"badminton","City":"Melbourne","longitude":145.3192589998,"latitude":-37.8134849992,"suburbtown":"KILSYTH","gcc":"2gmel","classification":"Outdoor and Adventure Sports"},{"sportsplayed":"basketball","City":"Melbourne","longitude":145.3192589998,"latitude":-37.8134849992,"suburbtown":"KILSYTH","gcc":"2gmel","classification":"Ball Sports"},{"sportsplayed":"bmx","City":"Melbourne","longitude":145.3068389998,"latitude":-37.8120049987,"suburbtown":"KILSYTH","gcc":"2gmel","classification":"Outdoor and Adventure Sports"},{"sportsplayed":"bmx","City":"Melbourne","longitude":145.5237069996,"latitude":-37.6522159995,"suburbtown":"HEALESVILLE","gcc":"2gmel","classification":"Outdoor and Adventure Sports"},{"sportsplayed":"bmx","City":"Melbourne","longitude":145.4092140002,"latitude":-37.8759889994,"suburbtown":"MONBULK","gcc":"2gmel","classification":"Outdoor and Adventure Sports"},{"sportsplayed":"cricket","City":"Melbourne","longitude":145.4018649999,"latitude":-37.8761849994,"suburbtown":"MONBULK","gcc":"2gmel","classification":"Ball Sports"},{"sportsplayed":"cricket","City":"Melbourne","longitude":145.3448600003,"latitude":-37.9157399994,"suburbtown":"BELGRAVE","gcc":"2gmel","classification":"Ball Sports"},{"sportsplayed":"cricket","City":"Melbourne","longitude":145.3559469999,"latitude":-37.9315359992,"suburbtown":"BELGRAVE SOUTH","gcc":"2gmel","classification":"Ball Sports"},{"sportsplayed":"cricket","City":"Melbourne","longitude":145.3183090005,"latitude":-37.7845479992,"suburbtown":"MOOROOLBARK","gcc":"2gmel","classification":"Ball Sports"},{"sportsplayed":"cricket","City":"Melbourne","longitude":145.5396579996,"latitude":-37.6687859987,"suburbtown":"HEALESVILLE","gcc":"2gmel","classification":"Ball Sports"},{"sportsplayed":"cricket","City":"Melbourne","longitude":145.6468849999,"latitude":-37.8156849994,"suburbtown":"GLADYSDALE","gcc":"2gmel","classification":"Ball Sports"},{"sportsplayed":"cricket","City":"Melbourne","longitude":145.3457959995,"latitude":-37.875345999,"suburbtown":"FERNY CREEK","gcc":"2gmel","classification":"Ball Sports"},{"sportsplayed":"cricket","City":"Melbourne","longitude":145.4450839996,"latitude":-37.7308449987,"suburbtown":"GRUYERE","gcc":"2gmel","classification":"Ball Sports"},{"sportsplayed":"cricket","City":"Melbourne","longitude":145.3802139995,"latitude":-37.7294849988,"suburbtown":"COLDSTREAM","gcc":"2gmel","classification":"Ball Sports"},{"sportsplayed":"cricket","City":"Melbourne","longitude":145.5962799999,"latitude":-37.8264759991,"suburbtown":"HODDLES CREEK","gcc":"2gmel","classification":"Ball Sports"},{"sportsplayed":"cricket","City":"Melbourne","longitude":145.3827590003,"latitude":-37.7344189991,"suburbtown":"COLDSTREAM","gcc":"2gmel","classification":"Ball Sports"},{"sportsplayed":"cricket","City":"Melbourne","longitude":145.3790509995,"latitude":-37.8166369993,"suburbtown":"KALORAMA","gcc":"2gmel","classification":"Ball Sports"},{"sportsplayed":"cricket","City":"Melbourne","longitude":145.3553789997,"latitude":-37.8033269987,"suburbtown":"MONTROSE","gcc":"2gmel","classification":"Ball Sports"},{"sportsplayed":"cricket","City":"Melbourne","longitude":145.3103409996,"latitude":-37.7931839993,"suburbtown":"KILSYTH","gcc":"2gmel","classification":"Ball Sports"},{"sportsplayed":"cricket","City":"Melbourne","longitude":145.3097890004,"latitude":-37.752024999,"suburbtown":"CHIRNSIDE PARK","gcc":"2gmel","classification":"Ball Sports"},{"sportsplayed":"cricket","City":"Melbourne","longitude":145.3491900001,"latitude":-37.7555079987,"suburbtown":"LILYDALE","gcc":"2gmel","classification":"Ball Sports"},{"sportsplayed":"cricket","City":"Melbourne","longitude":145.3939320002,"latitude":-37.9131669994,"suburbtown":"MENZIES CREEK","gcc":"2gmel","classification":"Ball Sports"},{"sportsplayed":"cricket","City":"Melbourne","longitude":145.6496169998,"latitude":-37.7536009992,"suburbtown":"MILLGROVE","gcc":"2gmel","classification":"Ball Sports"},{"sportsplayed":"cricket","City":"Melbourne","longitude":145.4104210003,"latitude":-37.8746259992,"suburbtown":"MONBULK","gcc":"2gmel","classification":"Ball Sports"},{"sportsplayed":"cricket","City":"Melbourne","longitude":145.3443019994,"latitude":-37.8128359993,"suburbtown":"MONTROSE","gcc":"2gmel","classification":"Ball Sports"},{"sportsplayed":"cricket","City":"Melbourne","longitude":145.3257459995,"latitude":-37.792790999,"suburbtown":"MOOROOLBARK","gcc":"2gmel","classification":"Ball Sports"},{"sportsplayed":"fitness \/ gymnasium workouts","City":"Melbourne","longitude":145.3110609994,"latitude":-37.7880679987,"suburbtown":"MOOROOLBARK","gcc":"2gmel","classification":"Strength and Fitness"},{"sportsplayed":"cricket","City":"Melbourne","longitude":145.3862349996,"latitude":-37.7734509995,"suburbtown":"MOUNT EVELYN","gcc":"2gmel","classification":"Ball Sports"},{"sportsplayed":"cricket","City":"Melbourne","longitude":145.3822520002,"latitude":-37.7955239993,"suburbtown":"MOUNT EVELYN","gcc":"2gmel","classification":"Ball Sports"},{"sportsplayed":"cricket","City":"Melbourne","longitude":145.3616329996,"latitude":-37.9635269993,"suburbtown":"NARRE WARREN EAST","gcc":"2gmel","classification":"Ball Sports"},{"sportsplayed":"cricket","City":"Melbourne","longitude":145.3697560004,"latitude":-37.8535529988,"suburbtown":"OLINDA","gcc":"2gmel","classification":"Ball Sports"},{"sportsplayed":"cricket","City":"Melbourne","longitude":145.3192589998,"latitude":-37.8134849992,"suburbtown":"KILSYTH","gcc":"2gmel","classification":"Ball Sports"},{"sportsplayed":"cricket","City":"Melbourne","longitude":145.7477040004,"latitude":-37.8644299989,"suburbtown":"POWELLTOWN","gcc":"2gmel","classification":"Ball Sports"},{"sportsplayed":"cricket","City":"Melbourne","longitude":145.523121,"latitude":-37.6537419987,"suburbtown":"HEALESVILLE","gcc":"2gmel","classification":"Ball Sports"},{"sportsplayed":"cricket","City":"Melbourne","longitude":145.4618730004,"latitude":-37.7801409989,"suburbtown":"SEVILLE","gcc":"2gmel","classification":"Ball Sports"},{"sportsplayed":"cricket","City":"Melbourne","longitude":145.5245479996,"latitude":-37.8044719987,"suburbtown":"YELLINGBO","gcc":"2gmel","classification":"Ball Sports"},{"sportsplayed":"cricket","City":"Melbourne","longitude":145.428321,"latitude":-37.8307269988,"suburbtown":"SILVAN","gcc":"2gmel","classification":"Ball Sports"},{"sportsplayed":"cricket","City":"Melbourne","longitude":145.3369710004,"latitude":-37.9030999992,"suburbtown":"UPWEY","gcc":"2gmel","classification":"Ball Sports"},{"sportsplayed":"cricket","City":"Melbourne","longitude":145.4585329999,"latitude":-37.8153089991,"suburbtown":"WANDIN EAST","gcc":"2gmel","classification":"Ball Sports"},{"sportsplayed":"cricket","City":"Melbourne","longitude":145.4302980001,"latitude":-37.7824699987,"suburbtown":"WANDIN NORTH","gcc":"2gmel","classification":"Ball Sports"},{"sportsplayed":"cricket","City":"Melbourne","longitude":145.6951139996,"latitude":-37.7515019987,"suburbtown":"WARBURTON","gcc":"2gmel","classification":"Ball Sports"},{"sportsplayed":"cricket","City":"Melbourne","longitude":145.6482589995,"latitude":-37.772281999,"suburbtown":"WESBURN","gcc":"2gmel","classification":"Ball Sports"},{"sportsplayed":"cricket","City":"Melbourne","longitude":145.5707480004,"latitude":-37.7882079988,"suburbtown":"LAUCHING PLACE","gcc":"2gmel","classification":"Ball Sports"},{"sportsplayed":"cricket","City":"Melbourne","longitude":145.5327399996,"latitude":-37.7833709992,"suburbtown":"WOORI YALLOCK","gcc":"2gmel","classification":"Ball Sports"},{"sportsplayed":"cricket","City":"Melbourne","longitude":145.3825609996,"latitude":-37.660306999,"suburbtown":"YARRA GLEN","gcc":"2gmel","classification":"Ball Sports"},{"sportsplayed":"cricket","City":"Melbourne","longitude":145.6120060004,"latitude":-37.7804689989,"suburbtown":"YARRA JUNCTION","gcc":"2gmel","classification":"Ball Sports"},{"sportsplayed":"cycling","City":"Melbourne","longitude":145.3010559998,"latitude":-37.9700489994,"suburbtown":null,"gcc":"2gmel","classification":"Running and Cycling"},{"sportsplayed":"equestrian","City":"Melbourne","longitude":145.4601810005,"latitude":-37.7798869992,"suburbtown":"SEVILLE","gcc":"2gmel","classification":"Outdoor and Adventure Sports"},{"sportsplayed":"equestrian","City":"Melbourne","longitude":145.5670639999,"latitude":-37.6965959995,"suburbtown":"HEALESVILLE","gcc":"2gmel","classification":"Outdoor and Adventure Sports"},{"sportsplayed":"equestrian","City":"Melbourne","longitude":145.3341740006,"latitude":-37.829613999,"suburbtown":"MONTROSE","gcc":"2gmel","classification":"Outdoor and Adventure Sports"},{"sportsplayed":"equestrian","City":"Melbourne","longitude":145.4043469999,"latitude":-37.7805239994,"suburbtown":"MOUNT EVELYN","gcc":"2gmel","classification":"Outdoor and Adventure Sports"},{"sportsplayed":"equestrian","City":"Melbourne","longitude":145.3489479996,"latitude":-37.9535079991,"suburbtown":"BELGRAVE SOUTH","gcc":"2gmel","classification":"Outdoor and Adventure Sports"},{"sportsplayed":"equestrian","City":"Melbourne","longitude":145.4910430002,"latitude":-37.889022999,"suburbtown":"MACCLESFIELD","gcc":"2gmel","classification":"Outdoor and Adventure Sports"}]